[
  {
    "name": "大樹大甲蔣公",
    "address": "台中市大甲區蔣公路218號",
    "type": "greattree",
    "direction": "中部",
    "county": "台中市",
    "district": "大甲區",
    "lat": 24.3469738,
    "lng": 120.6202259,
    "geocodeStatus": "success",
    "geocodeError": null
  },
  {
    "name": "大樹大里大明",
    "address": "台中市大里區大明路450號",
    "type": "greattree",
    "direction": "中部",
    "county": "台中市",
    "district": "大里區",
    "lat": 24.1151214,
    "lng": 120.6769677,
    "geocodeStatus": "success",
    "geocodeError": null
  },
  {
    "name": "大樹塗城",
    "address": "台中市大里區中興路一段189號",
    "type": "greattree",
    "direction": "中部",
    "county": "台中市",
    "district": "大里區",
    "lat": 24.0900794,
    "lng": 120.6931505,
    "geocodeStatus": "success",
    "geocodeError": null
  },
  {
    "name": "大樹大里中興",
    "address": "台中市大里區中興路二段101號",
    "type": "greattree",
    "direction": "中部",
    "county": "台中市",
    "district": "大里區",
    "lat": 24.1030954,
    "lng": 120.6884826,
    "geocodeStatus": "success",
    "geocodeError": null
  },
  {
    "name": "大樹大里成功",
    "address": "台中市大里區成功路516號",
    "type": "greattree",
    "direction": "中部",
    "county": "台中市",
    "district": "大里區",
    "lat": 24.0905531,
    "lng": 120.7033421,
    "geocodeStatus": "success",
    "geocodeError": null
  },
  {
    "name": "大樹大里益民",
    "address": "台中市大里區益民路二段335號",
    "type": "greattree",
    "direction": "中部",
    "county": "台中市",
    "district": "大里區",
    "lat": 24.1131471,
    "lng": 120.6837313,
    "geocodeStatus": "success",
    "geocodeError": null
  },
  {
    "name": "大樹大雅民生",
    "address": "台中市大雅區大雅區民生路一段221號",
    "type": "greattree",
    "direction": "中部",
    "county": "台中市",
    "district": "大雅區",
    "lat": 24.2278923,
    "lng": 120.6511997,
    "geocodeStatus": "success",
    "geocodeError": null
  },
  {
    "name": "大樹太平中山",
    "address": "台中市太平區中山路四段11號",
    "type": "greattree",
    "direction": "中部",
    "county": "台中市",
    "district": "太平區",
    "lat": 24.1493014,
    "lng": 120.7139077,
    "geocodeStatus": "success",
    "geocodeError": null
  },
  {
    "name": "大樹太平永成",
    "address": "台中市太平區太平路231號",
    "type": "greattree",
    "direction": "中部",
    "county": "台中市",
    "district": "太平區",
    "lat": 24.1213547,
    "lng": 120.7196107,
    "geocodeStatus": "success",
    "geocodeError": null
  },
  {
    "name": "大樹太平永新",
    "address": "台中市太平區太平路535號",
    "type": "greattree",
    "direction": "中部",
    "county": "台中市",
    "district": "太平區",
    "lat": 24.1252537,
    "lng": 120.7133692,
    "geocodeStatus": "success",
    "geocodeError": null
  },
  {
    "name": "大樹太平育賢",
    "address": "台中市太平區育賢路77號",
    "type": "greattree",
    "direction": "中部",
    "county": "台中市",
    "district": "太平區",
    "lat": 24.1575171,
    "lng": 120.7228319,
    "geocodeStatus": "success",
    "geocodeError": null
  },
  {
    "name": "大樹太平東平",
    "address": "台中市太平區東平路441號",
    "type": "greattree",
    "direction": "中部",
    "county": "台中市",
    "district": "太平區",
    "lat": 24.1335106,
    "lng": 120.7205762,
    "geocodeStatus": "success",
    "geocodeError": null
  },
  {
    "name": "大樹北屯松竹",
    "address": "台中市北屯區松竹路二段411號",
    "type": "greattree",
    "direction": "中部",
    "county": "台中市",
    "district": "北屯區",
    "lat": 24.1819134,
    "lng": 120.6895256,
    "geocodeStatus": "success",
    "geocodeError": null
  },
  {
    "name": "大樹北屯軍功",
    "address": "台中市北屯區軍功路一段752號",
    "type": "greattree",
    "direction": "中部",
    "county": "台中市",
    "district": "北屯區",
    "lat": 24.1754267,
    "lng": 120.7193154,
    "geocodeStatus": "success",
    "geocodeError": null
  },
  {
    "name": "大樹北屯昌平",
    "address": "台中市北屯區崇德十二路600號",
    "type": "greattree",
    "direction": "中部",
    "county": "台中市",
    "district": "北屯區",
    "lat": 24.1908137,
    "lng": 120.6851439,
    "geocodeStatus": "success",
    "geocodeError": null
  },
  {
    "name": "大樹崇德",
    "address": "台中市北屯區崇德路二段31號",
    "type": "greattree",
    "direction": "中部",
    "county": "台中市",
    "district": "北屯區",
    "lat": 24.1696483,
    "lng": 120.6850383,
    "geocodeStatus": "success",
    "geocodeError": null
  },
  {
    "name": "大樹北屯興安",
    "address": "台中市北屯區興安路二段52號",
    "type": "greattree",
    "direction": "中部",
    "county": "台中市",
    "district": "北屯區",
    "lat": 24.1761673,
    "lng": 120.6948375,
    "geocodeStatus": "success",
    "geocodeError": null
  },
  {
    "name": "大樹台中漢口",
    "address": "台中市北區漢口路三段261號",
    "type": "greattree",
    "direction": "中部",
    "county": "台中市",
    "district": "北區",
    "lat": 24.1671068,
    "lng": 120.6727209,
    "geocodeStatus": "success",
    "geocodeError": null
  },
  {
    "name": "大樹西屯中工",
    "address": "台中市西屯區中工三路191號",
    "type": "greattree",
    "direction": "中部",
    "county": "台中市",
    "district": "西屯區",
    "lat": 24.1766099,
    "lng": 120.6180888,
    "geocodeStatus": "success",
    "geocodeError": null
  },
  {
    "name": "大樹台中成長",
    "address": "台中市西屯區成都路336號",
    "type": "greattree",
    "direction": "中部",
    "county": "台中市",
    "district": "西屯區",
    "lat": 24.173261,
    "lng": 120.664095,
    "geocodeStatus": "success",
    "geocodeError": null
  },
  {
    "name": "大樹何安",
    "address": "台中市西屯區西屯路二段101號",
    "type": "greattree",
    "direction": "中部",
    "county": "台中市",
    "district": "西屯區",
    "lat": 24.1662967,
    "lng": 120.6530566,
    "geocodeStatus": "success",
    "geocodeError": null
  },
  {
    "name": "大樹西屯何福",
    "address": "台中市西屯區西屯路二段16-5號",
    "type": "greattree",
    "direction": "中部",
    "county": "台中市",
    "district": "西屯區",
    "lat": 24.1640467,
    "lng": 120.6617361,
    "geocodeStatus": "success",
    "geocodeError": null
  },
  {
    "name": "大樹西屯逢甲",
    "address": "台中市西屯區西屯路二段282之5號",
    "type": "greattree",
    "direction": "中部",
    "county": "台中市",
    "district": "西屯區",
    "lat": 24.1761489,
    "lng": 120.6440183,
    "geocodeStatus": "success",
    "geocodeError": null
  },
  {
    "name": "大樹西屯中科",
    "address": "台中市西屯區西屯路三段150-45號",
    "type": "greattree",
    "direction": "中部",
    "county": "台中市",
    "district": "西屯區",
    "lat": 24.1871909,
    "lng": 120.6210687,
    "geocodeStatus": "success",
    "geocodeError": null
  },
  {
    "name": "大樹西屯河南",
    "address": "台中市西屯區河南路二段473號",
    "type": "greattree",
    "direction": "中部",
    "county": "台中市",
    "district": "西屯區",
    "lat": 24.1689051,
    "lng": 120.6422041,
    "geocodeStatus": "success",
    "geocodeError": null
  },
  {
    "name": "大樹西屯福科",
    "address": "台中市西屯區福科路479號",
    "type": "greattree",
    "direction": "中部",
    "county": "台中市",
    "district": "西屯區",
    "lat": 24.1842469,
    "lng": 120.6195224,
    "geocodeStatus": "success",
    "geocodeError": null
  },
  {
    "name": "大樹西屯黎明",
    "address": "台中市西屯區黎明路三段275號",
    "type": "greattree",
    "direction": "中部",
    "county": "台中市",
    "district": "西屯區",
    "lat": 24.1783172,
    "lng": 120.6373138,
    "geocodeStatus": "success",
    "geocodeError": null
  },
  {
    "name": "大樹台中五權",
    "address": "台中市西區五權路97號",
    "type": "greattree",
    "direction": "中部",
    "county": "台中市",
    "district": "西區",
    "lat": 24.146133,
    "lng": 120.6716271,
    "geocodeStatus": "success",
    "geocodeError": null
  },
  {
    "name": "大樹台中忠誠",
    "address": "台中市西區美村路一段68號",
    "type": "greattree",
    "direction": "中部",
    "county": "台中市",
    "district": "西區",
    "lat": 24.1528491,
    "lng": 120.6614977,
    "geocodeStatus": "success",
    "geocodeError": null
  },
  {
    "name": "大樹台中精誠",
    "address": "台中市西區精誠路195號",
    "type": "greattree",
    "direction": "中部",
    "county": "台中市",
    "district": "西區",
    "lat": 24.1484668,
    "lng": 120.6554047,
    "geocodeStatus": "success",
    "geocodeError": null
  },
  {
    "name": "大樹沙鹿洛泉",
    "address": "台中市沙鹿區中山路233號",
    "type": "greattree",
    "direction": "中部",
    "county": "台中市",
    "district": "沙鹿區",
    "lat": 24.2376287,
    "lng": 120.5616644,
    "geocodeStatus": "success",
    "geocodeError": null
  },
  {
    "name": "大樹沙鹿中山",
    "address": "台中市沙鹿區中山路461號",
    "type": "greattree",
    "direction": "中部",
    "county": "台中市",
    "district": "沙鹿區",
    "lat": 24.2438696,
    "lng": 120.5615255,
    "geocodeStatus": "success",
    "geocodeError": null
  },
  {
    "name": "大樹沙鹿北勢",
    "address": "台中市沙鹿區北勢東路588號",
    "type": "greattree",
    "direction": "中部",
    "county": "台中市",
    "district": "沙鹿區",
    "lat": 24.2288967,
    "lng": 120.5739365,
    "geocodeStatus": "success",
    "geocodeError": null
  },
  {
    "name": "大樹東勢豐勢",
    "address": "台中市東勢區豐勢路361號",
    "type": "greattree",
    "direction": "中部",
    "county": "台中市",
    "district": "東勢區",
    "lat": 24.2551134,
    "lng": 120.8291374,
    "geocodeStatus": "success",
    "geocodeError": null
  },
  {
    "name": "大樹南屯永春",
    "address": "台中市南屯區永春東路798號",
    "type": "greattree",
    "direction": "中部",
    "county": "台中市",
    "district": "南屯區",
    "lat": 24.1350732,
    "lng": 120.6422819,
    "geocodeStatus": "success",
    "geocodeError": null
  },
  {
    "name": "大樹南屯向上",
    "address": "台中市南屯區向上路一段643號",
    "type": "greattree",
    "direction": "中部",
    "county": "台中市",
    "district": "南屯區",
    "lat": 24.146611,
    "lng": 120.6485439,
    "geocodeStatus": "success",
    "geocodeError": null
  },
  {
    "name": "大樹南屯三厝",
    "address": "台中市南屯區向上路二段432之2號",
    "type": "greattree",
    "direction": "中部",
    "county": "台中市",
    "district": "南屯區",
    "lat": 24.147177,
    "lng": 120.6373647,
    "geocodeStatus": "success",
    "geocodeError": null
  },
  {
    "name": "大樹南屯忠勇",
    "address": "台中市南屯區忠勇路47-27號",
    "type": "greattree",
    "direction": "中部",
    "county": "台中市",
    "district": "南屯區",
    "lat": 24.1428485,
    "lng": 120.6135987,
    "geocodeStatus": "success",
    "geocodeError": null
  },
  {
    "name": "大樹南屯同心",
    "address": "台中市南屯區南屯路二段226號",
    "type": "greattree",
    "direction": "中部",
    "county": "台中市",
    "district": "南屯區",
    "lat": 24.1368768,
    "lng": 120.6496998,
    "geocodeStatus": "success",
    "geocodeError": null
  },
  {
    "name": "大樹南屯黎明",
    "address": "台中市南屯區黎明路一段918號",
    "type": "greattree",
    "direction": "中部",
    "county": "台中市",
    "district": "南屯區",
    "lat": 24.13459,
    "lng": 120.6365859,
    "geocodeStatus": "success",
    "geocodeError": null
  },
  {
    "name": "大樹台中大慶",
    "address": "台中市南區大慶街二段27號",
    "type": "greattree",
    "direction": "中部",
    "county": "台中市",
    "district": "南區",
    "lat": 24.1157758,
    "lng": 120.6503024,
    "geocodeStatus": "success",
    "geocodeError": null
  },
  {
    "name": "大樹台中建國",
    "address": "台中市南區建國北路一段142號",
    "type": "greattree",
    "direction": "中部",
    "county": "台中市",
    "district": "南區",
    "lat": 24.1226417,
    "lng": 120.653164,
    "geocodeStatus": "success",
    "geocodeError": null
  },
  {
    "name": "大樹台中美村",
    "address": "台中市南區美村南路124號",
    "type": "greattree",
    "direction": "中部",
    "county": "台中市",
    "district": "南區",
    "lat": 24.1149079,
    "lng": 120.6669103,
    "geocodeStatus": "success",
    "geocodeError": null
  },
  {
    "name": "大樹台中復興",
    "address": "台中市南區復興路三段347號",
    "type": "greattree",
    "direction": "中部",
    "county": "台中市",
    "district": "南區",
    "lat": 24.1326297,
    "lng": 120.6782726,
    "geocodeStatus": "success",
    "geocodeError": null
  },
  {
    "name": "大樹烏日中山",
    "address": "台中市烏日區中山路一段440號",
    "type": "greattree",
    "direction": "中部",
    "county": "台中市",
    "district": "烏日區",
    "lat": 24.1075365,
    "lng": 120.6365561,
    "geocodeStatus": "success",
    "geocodeError": null
  },
  {
    "name": "大樹烏日光日",
    "address": "台中市烏日區光日路127號",
    "type": "greattree",
    "direction": "中部",
    "county": "台中市",
    "district": "烏日區",
    "lat": 24.1058278,
    "lng": 120.624796,
    "geocodeStatus": "success",
    "geocodeError": null
  },
  {
    "name": "大樹烏日溪南",
    "address": "台中市烏日區溪南路一段565號",
    "type": "greattree",
    "direction": "中部",
    "county": "台中市",
    "district": "烏日區",
    "lat": 24.0751717,
    "lng": 120.6431054,
    "geocodeStatus": "success",
    "geocodeError": null
  },
  {
    "name": "大樹神岡五權",
    "address": "台中市神岡區五權路80號",
    "type": "greattree",
    "direction": "中部",
    "county": "台中市",
    "district": "神岡區",
    "lat": 24.2577142,
    "lng": 120.7117969,
    "geocodeStatus": "success",
    "geocodeError": null
  },
  {
    "name": "大樹梧棲中興",
    "address": "台中市梧棲區中興路358號",
    "type": "greattree",
    "direction": "中部",
    "county": "台中市",
    "district": "梧棲區",
    "lat": 24.2574489,
    "lng": 120.5348615,
    "geocodeStatus": "success",
    "geocodeError": null
  },
  {
    "name": "大樹潭子勝利",
    "address": "台中市潭子區勝利路205號",
    "type": "greattree",
    "direction": "中部",
    "county": "台中市",
    "district": "潭子區",
    "lat": 24.2114058,
    "lng": 120.7004161,
    "geocodeStatus": "success",
    "geocodeError": null
  },
  {
    "name": "大樹龍井中央",
    "address": "台中市龍井區中央路三段51號",
    "type": "greattree",
    "direction": "中部",
    "county": "台中市",
    "district": "龍井區",
    "lat": 24.2120353,
    "lng": 120.524822,
    "geocodeStatus": "success",
    "geocodeError": null
  },
  {
    "name": "大樹龍井新興",
    "address": "台中市龍井區新興路13之1號",
    "type": "greattree",
    "direction": "中部",
    "county": "台中市",
    "district": "龍井區",
    "lat": 24.1810052,
    "lng": 120.59074,
    "geocodeStatus": "success",
    "geocodeError": null
  },
  {
    "name": "大樹豐原成功",
    "address": "台中市豐原區成功路190號",
    "type": "greattree",
    "direction": "中部",
    "county": "台中市",
    "district": "豐原區",
    "lat": 24.2454287,
    "lng": 120.7091153,
    "geocodeStatus": "success",
    "geocodeError": null
  },
  {
    "name": "大樹豐原府前",
    "address": "台中市豐原區府前街32號",
    "type": "greattree",
    "direction": "中部",
    "county": "台中市",
    "district": "豐原區",
    "lat": 24.2496625,
    "lng": 120.7196019,
    "geocodeStatus": "success",
    "geocodeError": null
  },
  {
    "name": "大樹豐原圓環",
    "address": "台中市豐原區圓環東路617號",
    "type": "greattree",
    "direction": "中部",
    "county": "台中市",
    "district": "豐原區",
    "lat": 24.2508036,
    "lng": 120.7282257,
    "geocodeStatus": "success",
    "geocodeError": null
  },
  {
    "name": "大樹霧峰中正二店",
    "address": "台中市霧峰區中正路1162號",
    "type": "greattree",
    "direction": "中部",
    "county": "台中市",
    "district": "霧峰區",
    "lat": 24.0706716,
    "lng": 120.6996885,
    "geocodeStatus": "success",
    "geocodeError": null
  },
  {
    "name": "大樹霧峰中正",
    "address": "台中市霧峰區中正路830號",
    "type": "greattree",
    "direction": "中部",
    "county": "台中市",
    "district": "霧峰區",
    "lat": 24.0624386,
    "lng": 120.6986609,
    "geocodeStatus": "success",
    "geocodeError": null
  },
  {
    "name": "大樹名間南雅",
    "address": "南投縣名間鄉彰南路23號",
    "type": "greattree",
    "direction": "中部",
    "county": "南投縣",
    "district": "名間鄉",
    "lat": 23.8364852,
    "lng": 120.7038374,
    "geocodeStatus": "success",
    "geocodeError": null
  },
  {
    "name": "大樹竹山",
    "address": "南投縣竹山鎮大明路482號",
    "type": "greattree",
    "direction": "中部",
    "county": "南投縣",
    "district": "竹山鎮",
    "lat": 23.7590268,
    "lng": 120.6800269,
    "geocodeStatus": "success",
    "geocodeError": null
  },
  {
    "name": "大樹竹山前山",
    "address": "南投縣竹山鎮前山路一段2號",
    "type": "greattree",
    "direction": "中部",
    "county": "南投縣",
    "district": "竹山鎮",
    "lat": 23.7568743,
    "lng": 120.6820202,
    "geocodeStatus": "success",
    "geocodeError": null
  },
  {
    "name": "大樹南投彰南",
    "address": "南投縣南投市彰南路二段21號",
    "type": "greattree",
    "direction": "中部",
    "county": "南投縣",
    "district": "南投市",
    "lat": 23.9086116,
    "lng": 120.6847221,
    "geocodeStatus": "success",
    "geocodeError": null
  },
  {
    "name": "大樹埔里中正",
    "address": "南投縣埔里鎮中正路438號",
    "type": "greattree",
    "direction": "中部",
    "county": "南投縣",
    "district": "埔里鎮",
    "lat": 23.963183,
    "lng": 120.9696373,
    "geocodeStatus": "success",
    "geocodeError": null
  },
  {
    "name": "大樹草屯中正",
    "address": "南投縣草屯鎮中正路824號",
    "type": "greattree",
    "direction": "中部",
    "county": "南投縣",
    "district": "草屯鎮",
    "lat": 23.9829389,
    "lng": 120.6855181,
    "geocodeStatus": "success",
    "geocodeError": null
  },
  {
    "name": "大樹草屯碧山",
    "address": "南投縣草屯鎮碧山路145號",
    "type": "greattree",
    "direction": "中部",
    "county": "南投縣",
    "district": "草屯鎮",
    "lat": 23.9778923,
    "lng": 120.6833706,
    "geocodeStatus": "success",
    "geocodeError": null
  },
  {
    "name": "大樹公館玉泉",
    "address": "苗栗縣公館鄉玉泉368之11號",
    "type": "greattree",
    "direction": "中部",
    "county": "苗栗縣",
    "district": "公館鄉",
    "lat": 24.5072898,
    "lng": 120.8267544,
    "geocodeStatus": "success",
    "geocodeError": null
  },
  {
    "name": "大樹後龍中山",
    "address": "苗栗縣後龍鎮中山路209號",
    "type": "greattree",
    "direction": "中部",
    "county": "苗栗縣",
    "district": "後龍鎮",
    "lat": 24.6126997,
    "lng": 120.7931085,
    "geocodeStatus": "success",
    "geocodeError": null
  },
  {
    "name": "大樹苑裡",
    "address": "苗栗縣苑裡鎮為公路32-1號",
    "type": "greattree",
    "direction": "中部",
    "county": "苗栗縣",
    "district": "苑裡鎮",
    "lat": 24.4424508,
    "lng": 120.6541462,
    "geocodeStatus": "success",
    "geocodeError": null
  },
  {
    "name": "大樹苗栗中山",
    "address": "苗栗縣苗栗市中山路567號",
    "type": "greattree",
    "direction": "中部",
    "county": "苗栗縣",
    "district": "苗栗市",
    "lat": 24.5582609,
    "lng": 120.8200159,
    "geocodeStatus": "success",
    "geocodeError": null
  },
  {
    "name": "大樹苗栗民族",
    "address": "苗栗縣苗栗市民族路135號",
    "type": "greattree",
    "direction": "中部",
    "county": "苗栗縣",
    "district": "苗栗市",
    "lat": 24.5637538,
    "lng": 120.8160228,
    "geocodeStatus": "success",
    "geocodeError": null
  },
  {
    "name": "大樹苗栗光復",
    "address": "苗栗縣苗栗市光復路55號",
    "type": "greattree",
    "direction": "中部",
    "county": "苗栗縣",
    "district": "苗栗市",
    "lat": 24.5532878,
    "lng": 120.8163977,
    "geocodeStatus": "success",
    "geocodeError": null
  },
  {
    "name": "大樹苗栗為公",
    "address": "苗栗縣苗栗市為公路205號",
    "type": "greattree",
    "direction": "中部",
    "county": "苗栗縣",
    "district": "苗栗市",
    "lat": 24.5711644,
    "lng": 120.8277357,
    "geocodeStatus": "success",
    "geocodeError": null
  },
  {
    "name": "大樹通宵中山",
    "address": "苗栗縣通霄鎮中山路131號",
    "type": "greattree",
    "direction": "中部",
    "county": "苗栗縣",
    "district": "通霄鎮",
    "lat": 24.4891201,
    "lng": 120.6779992,
    "geocodeStatus": "success",
    "geocodeError": null
  },
  {
    "name": "大樹 頭份仁愛",
    "address": "苗栗縣頭份市仁愛路110號",
    "type": "greattree",
    "direction": "中部",
    "county": "苗栗縣",
    "district": "頭份市",
    "lat": 24.6873803,
    "lng": 120.908369,
    "geocodeStatus": "success",
    "geocodeError": null
  },
  {
    "name": "大樹土庫中山",
    "address": "雲林縣土庫鎮中山路199號",
    "type": "greattree",
    "direction": "中部",
    "county": "雲林縣",
    "district": "土庫鎮",
    "lat": 23.6765908,
    "lng": 120.3915525,
    "geocodeStatus": "success",
    "geocodeError": null
  },
  {
    "name": "大樹斗六民生",
    "address": "雲林縣斗六市民生南路192號",
    "type": "greattree",
    "direction": "中部",
    "county": "雲林縣",
    "district": "斗六市",
    "lat": 23.7020815,
    "lng": 120.5368466,
    "geocodeStatus": "success",
    "geocodeError": null
  },
  {
    "name": "大樹斗六成功",
    "address": "雲林縣斗六市成功路296號",
    "type": "greattree",
    "direction": "中部",
    "county": "雲林縣",
    "district": "斗六市",
    "lat": 23.7047273,
    "lng": 120.5516574,
    "geocodeStatus": "success",
    "geocodeError": null
  },
  {
    "name": "大樹斗六西平",
    "address": "雲林縣斗六市西平路196號",
    "type": "greattree",
    "direction": "中部",
    "county": "雲林縣",
    "district": "斗六市",
    "lat": 23.7112529,
    "lng": 120.5367704,
    "geocodeStatus": "success",
    "geocodeError": null
  },
  {
    "name": "大樹斗六雲林",
    "address": "雲林縣斗六市雲林路二段113號",
    "type": "greattree",
    "direction": "中部",
    "county": "雲林縣",
    "district": "斗六市",
    "lat": 23.7047669,
    "lng": 120.533983,
    "geocodeStatus": "success",
    "geocodeError": null
  },
  {
    "name": "大樹斗南南昌",
    "address": "雲林縣斗南鎮南昌路112號",
    "type": "greattree",
    "direction": "中部",
    "county": "雲林縣",
    "district": "斗南鎮",
    "lat": 23.6732554,
    "lng": 120.4791864,
    "geocodeStatus": "success",
    "geocodeError": null
  },
  {
    "name": "大樹北港華勝",
    "address": "雲林縣北港鎮華勝路99號",
    "type": "greattree",
    "direction": "中部",
    "county": "雲林縣",
    "district": "北港鎮",
    "lat": 23.5756294,
    "lng": 120.2986664,
    "geocodeStatus": "success",
    "geocodeError": null
  },
  {
    "name": "大樹北港義民",
    "address": "雲林縣北港鎮義民路80號",
    "type": "greattree",
    "direction": "中部",
    "county": "雲林縣",
    "district": "北港鎮",
    "lat": 23.567914,
    "lng": 120.3024042,
    "geocodeStatus": "success",
    "geocodeError": null
  },
  {
    "name": "大樹西螺光復",
    "address": "雲林縣西螺鎮光復西路123號",
    "type": "greattree",
    "direction": "中部",
    "county": "雲林縣",
    "district": "西螺鎮",
    "lat": 23.7967626,
    "lng": 120.4612591,
    "geocodeStatus": "success",
    "geocodeError": null
  },
  {
    "name": "大樹虎尾東仁",
    "address": "雲林縣虎尾鎮林森路一段315號",
    "type": "greattree",
    "direction": "中部",
    "county": "雲林縣",
    "district": "虎尾鎮",
    "lat": 23.7127463,
    "lng": 120.4371648,
    "geocodeStatus": "success",
    "geocodeError": null
  },
  {
    "name": "大樹雲林虎尾",
    "address": "雲林縣虎尾鎮林森路二段117號",
    "type": "greattree",
    "direction": "中部",
    "county": "雲林縣",
    "district": "虎尾鎮",
    "lat": 23.705929,
    "lng": 120.429942,
    "geocodeStatus": "success",
    "geocodeError": null
  },
  {
    "name": "大樹虎尾復興",
    "address": "雲林縣虎尾鎮復興路231號",
    "type": "greattree",
    "direction": "中部",
    "county": "雲林縣",
    "district": "虎尾鎮",
    "lat": 23.7047841,
    "lng": 120.4245928,
    "geocodeStatus": "success",
    "geocodeError": null
  },
  {
    "name": "大樹麥寮中山",
    "address": "雲林縣麥寮鄉中山路313號",
    "type": "greattree",
    "direction": "中部",
    "county": "雲林縣",
    "district": "麥寮鄉",
    "lat": 23.749492,
    "lng": 120.252588,
    "geocodeStatus": "success",
    "geocodeError": null
  },
  {
    "name": "大樹二林斗苑",
    "address": "彰化縣二林鎮斗苑路五段39號",
    "type": "greattree",
    "direction": "中部",
    "county": "彰化縣",
    "district": "二林鎮",
    "lat": 23.8994925,
    "lng": 120.3709606,
    "geocodeStatus": "success",
    "geocodeError": null
  },
  {
    "name": "大樹北斗中華",
    "address": "彰化縣北斗鎮中華路150號",
    "type": "greattree",
    "direction": "中部",
    "county": "彰化縣",
    "district": "北斗鎮",
    "lat": 23.8732408,
    "lng": 120.5245657,
    "geocodeStatus": "success",
    "geocodeError": null
  },
  {
    "name": "大樹永靖瑚璉",
    "address": "彰化縣永靖鄉瑚璉路116號",
    "type": "greattree",
    "direction": "中部",
    "county": "彰化縣",
    "district": "永靖鄉",
    "lat": 23.926252,
    "lng": 120.5505606,
    "geocodeStatus": "success",
    "geocodeError": null
  },
  {
    "name": "大樹田中新生",
    "address": "彰化縣田中鎮新生街150巷2號",
    "type": "greattree",
    "direction": "中部",
    "county": "彰化縣",
    "district": "田中鎮",
    "lat": 23.8621001,
    "lng": 120.586152,
    "geocodeStatus": "success",
    "geocodeError": null
  },
  {
    "name": "大樹伸港信義",
    "address": "彰化縣伸港鄉信義路71號",
    "type": "greattree",
    "direction": "中部",
    "county": "彰化縣",
    "district": "伸港鄉",
    "lat": 24.1466525,
    "lng": 120.4860887,
    "geocodeStatus": "success",
    "geocodeError": null
  },
  {
    "name": "大樹彰化秀水",
    "address": "彰化縣秀水鄉彰水路二段427號",
    "type": "greattree",
    "direction": "中部",
    "county": "彰化縣",
    "district": "秀水鄉",
    "lat": 24.0279913,
    "lng": 120.4942663,
    "geocodeStatus": "success",
    "geocodeError": null
  },
  {
    "name": "大樹和美道周",
    "address": "彰化縣和美鎮道周路501號",
    "type": "greattree",
    "direction": "中部",
    "county": "彰化縣",
    "district": "和美鎮",
    "lat": 24.1088345,
    "lng": 120.4938766,
    "geocodeStatus": "success",
    "geocodeError": null
  },
  {
    "name": "大樹和美彰美",
    "address": "彰化縣和美鎮彰美路六段151號",
    "type": "greattree",
    "direction": "中部",
    "county": "彰化縣",
    "district": "和美鎮",
    "lat": 24.1149091,
    "lng": 120.4960597,
    "geocodeStatus": "success",
    "geocodeError": null
  },
  {
    "name": "大樹社頭社斗",
    "address": "彰化縣社頭鄉社斗路一段373號",
    "type": "greattree",
    "direction": "中部",
    "county": "彰化縣",
    "district": "社頭鄉",
    "lat": 23.8964192,
    "lng": 120.5845901,
    "geocodeStatus": "success",
    "geocodeError": null
  },
  {
    "name": "大樹花壇中正",
    "address": "彰化縣花壇鄉花壇鄉中正路88號",
    "type": "greattree",
    "direction": "中部",
    "county": "彰化縣",
    "district": "花壇鄉",
    "lat": 24.0275139,
    "lng": 120.5449479,
    "geocodeStatus": "success",
    "geocodeError": null
  },
  {
    "name": "大樹員林三民",
    "address": "彰化縣員林市三民東街356號",
    "type": "greattree",
    "direction": "中部",
    "county": "彰化縣",
    "district": "員林市",
    "lat": 23.9606458,
    "lng": 120.5824618,
    "geocodeStatus": "success",
    "geocodeError": null
  },
  {
    "name": "大樹員林大同",
    "address": "彰化縣員林市大同路二段209號",
    "type": "greattree",
    "direction": "中部",
    "county": "彰化縣",
    "district": "員林市",
    "lat": 23.9689497,
    "lng": 120.5745017,
    "geocodeStatus": "success",
    "geocodeError": null
  },
  {
    "name": "大樹員林中正",
    "address": "彰化縣員林市中正路168號",
    "type": "greattree",
    "direction": "中部",
    "county": "彰化縣",
    "district": "員林市",
    "lat": 23.9532244,
    "lng": 120.5752665,
    "geocodeStatus": "success",
    "geocodeError": null
  },
  {
    "name": "大樹員林莒光",
    "address": "彰化縣員林市莒光路316號",
    "type": "greattree",
    "direction": "中部",
    "county": "彰化縣",
    "district": "員林市",
    "lat": 23.9592811,
    "lng": 120.5668764,
    "geocodeStatus": "success",
    "geocodeError": null
  },
  {
    "name": "大樹彰化埔心",
    "address": "彰化縣埔心鄉中山路319號",
    "type": "greattree",
    "direction": "中部",
    "county": "彰化縣",
    "district": "埔心鄉",
    "lat": 23.9474638,
    "lng": 120.5636128,
    "geocodeStatus": "success",
    "geocodeError": null
  },
  {
    "name": "大樹鹿港中山",
    "address": "彰化縣鹿港鎮中山路340號",
    "type": "greattree",
    "direction": "中部",
    "county": "彰化縣",
    "district": "鹿港鎮",
    "lat": 24.0579158,
    "lng": 120.4325819,
    "geocodeStatus": "success",
    "geocodeError": null
  },
  {
    "name": "大樹鹿港中正",
    "address": "彰化縣鹿港鎮中正路193號",
    "type": "greattree",
    "direction": "中部",
    "county": "彰化縣",
    "district": "鹿港鎮",
    "lat": 24.0549541,
    "lng": 120.4404485,
    "geocodeStatus": "success",
    "geocodeError": null
  },
  {
    "name": "大樹溪湖東環",
    "address": "彰化縣溪湖鎮東環路268號",
    "type": "greattree",
    "direction": "中部",
    "county": "彰化縣",
    "district": "溪湖鎮",
    "lat": 23.9587154,
    "lng": 120.4832296,
    "geocodeStatus": "success",
    "geocodeError": null
  },
  {
    "name": "大樹溪湖彰水",
    "address": "彰化縣溪湖鎮彰水路三段279號",
    "type": "greattree",
    "direction": "中部",
    "county": "彰化縣",
    "district": "溪湖鎮",
    "lat": 23.9596473,
    "lng": 120.4798634,
    "geocodeStatus": "success",
    "geocodeError": null
  },
  {
    "name": "大樹彰化珍埔",
    "address": "彰化縣彰化市大埔路406號",
    "type": "greattree",
    "direction": "中部",
    "county": "彰化縣",
    "district": "彰化市",
    "lat": 24.062981,
    "lng": 120.543883,
    "geocodeStatus": "success",
    "geocodeError": null
  },
  {
    "name": "大樹彰化中正",
    "address": "彰化縣彰化市中正路一段328號",
    "type": "greattree",
    "direction": "中部",
    "county": "彰化縣",
    "district": "彰化市",
    "lat": 24.0833614,
    "lng": 120.5450244,
    "geocodeStatus": "success",
    "geocodeError": null
  },
  {
    "name": "大樹彰化民族",
    "address": "彰化縣彰化市民族路212號",
    "type": "greattree",
    "direction": "中部",
    "county": "彰化縣",
    "district": "彰化市",
    "lat": 24.0711075,
    "lng": 120.5392827,
    "geocodeStatus": "success",
    "geocodeError": null
  },
  {
    "name": "大樹彰化成長",
    "address": "彰化縣彰化市永安路278號",
    "type": "greattree",
    "direction": "中部",
    "county": "彰化縣",
    "district": "彰化市",
    "lat": 24.0898275,
    "lng": 120.5437171,
    "geocodeStatus": "success",
    "geocodeError": null
  },
  {
    "name": "大樹彰化自強",
    "address": "彰化縣彰化市自強路43號",
    "type": "greattree",
    "direction": "中部",
    "county": "彰化縣",
    "district": "彰化市",
    "lat": 24.0897923,
    "lng": 120.5392942,
    "geocodeStatus": "success",
    "geocodeError": null
  },
  {
    "name": "大樹士林士東",
    "address": "台北市士林區士東路91巷3號",
    "type": "greattree",
    "direction": "北部",
    "county": "台北市",
    "district": "士林區",
    "lat": 25.1126446,
    "lng": 121.5290231,
    "geocodeStatus": "success",
    "geocodeError": null
  },
  {
    "name": "大樹士林天母",
    "address": "台北市士林區天母西路26號",
    "type": "greattree",
    "direction": "北部",
    "county": "台北市",
    "district": "士林區",
    "lat": 25.1183813,
    "lng": 121.526809,
    "geocodeStatus": "success",
    "geocodeError": null
  },
  {
    "name": "大樹士林文林",
    "address": "台北市士林區文林路484號",
    "type": "greattree",
    "direction": "北部",
    "county": "台北市",
    "district": "士林區",
    "lat": 25.0962149,
    "lng": 121.5244297,
    "geocodeStatus": "success",
    "geocodeError": null
  },
  {
    "name": "大樹士林忠誠",
    "address": "台北市士林區忠誠路一段27號",
    "type": "greattree",
    "direction": "北部",
    "county": "台北市",
    "district": "士林區",
    "lat": 25.1041336,
    "lng": 121.5270614,
    "geocodeStatus": "success",
    "geocodeError": null
  },
  {
    "name": "大樹士林社子",
    "address": "台北市士林區社子街4號",
    "type": "greattree",
    "direction": "北部",
    "county": "台北市",
    "district": "士林區",
    "lat": 25.0875593,
    "lng": 121.5087124,
    "geocodeStatus": "success",
    "geocodeError": null
  },
  {
    "name": "大樹士林通河",
    "address": "台北市士林區通河街147號",
    "type": "greattree",
    "direction": "北部",
    "county": "台北市",
    "district": "士林區",
    "lat": 25.0811137,
    "lng": 121.5205822,
    "geocodeStatus": "success",
    "geocodeError": null
  },
  {
    "name": "大樹士林劍潭",
    "address": "台北市士林區劍潭路55巷22號",
    "type": "greattree",
    "direction": "北部",
    "county": "台北市",
    "district": "士林區",
    "lat": 25.0846291,
    "lng": 121.5214886,
    "geocodeStatus": "success",
    "geocodeError": null
  },
  {
    "name": "大樹大同雙連",
    "address": "台北市大同區民生西路128號",
    "type": "greattree",
    "direction": "北部",
    "county": "台北市",
    "district": "大同區",
    "lat": 25.0573343,
    "lng": 121.5191196,
    "geocodeStatus": "success",
    "geocodeError": null
  },
  {
    "name": "大樹大同民族",
    "address": "台北市大同區民族西路150號",
    "type": "greattree",
    "direction": "北部",
    "county": "台北市",
    "district": "大同區",
    "lat": 25.0684083,
    "lng": 121.515753,
    "geocodeStatus": "success",
    "geocodeError": null
  },
  {
    "name": "大樹大同延平",
    "address": "台北市大同區延平北路三段4號",
    "type": "greattree",
    "direction": "北部",
    "county": "台北市",
    "district": "大同區",
    "lat": 25.0634499,
    "lng": 121.5108546,
    "geocodeStatus": "success",
    "geocodeError": null
  },
  {
    "name": "大樹大安仁慈",
    "address": "台北市大安區大安路一段178號",
    "type": "greattree",
    "direction": "北部",
    "county": "台北市",
    "district": "大安區",
    "lat": 25.0363862,
    "lng": 121.5459277,
    "geocodeStatus": "success",
    "geocodeError": null
  },
  {
    "name": "大樹大安國泰",
    "address": "台北市大安區仁愛路四段300巷17弄1號",
    "type": "greattree",
    "direction": "北部",
    "county": "台北市",
    "district": "大安區",
    "lat": 25.0367451,
    "lng": 121.5548622,
    "geocodeStatus": "success",
    "geocodeError": null
  },
  {
    "name": "大樹中山吉林",
    "address": "台北市中山區吉林路371號",
    "type": "greattree",
    "direction": "北部",
    "county": "台北市",
    "district": "中山區",
    "lat": 25.0650388,
    "lng": 121.5304841,
    "geocodeStatus": "success",
    "geocodeError": null
  },
  {
    "name": "大樹中山明水",
    "address": "台北市中山區明水路651號",
    "type": "greattree",
    "direction": "北部",
    "county": "台北市",
    "district": "中山區",
    "lat": 25.0831066,
    "lng": 121.5508128,
    "geocodeStatus": "success",
    "geocodeError": null
  },
  {
    "name": "大樹中山錦州",
    "address": "台北市中山區錦州街244號",
    "type": "greattree",
    "direction": "北部",
    "county": "台北市",
    "district": "中山區",
    "lat": 25.0602626,
    "lng": 121.5338695,
    "geocodeStatus": "success",
    "geocodeError": null
  },
  {
    "name": "大樹台北龍江",
    "address": "台北市中山區龍江路242號",
    "type": "greattree",
    "direction": "北部",
    "county": "台北市",
    "district": "中山區",
    "lat": 25.05889,
    "lng": 121.5405324,
    "geocodeStatus": "success",
    "geocodeError": null
  },
  {
    "name": "大樹中正汀州",
    "address": "台北市中正區汀州路一段189號",
    "type": "greattree",
    "direction": "北部",
    "county": "台北市",
    "district": "中正區",
    "lat": 25.0271644,
    "lng": 121.5112324,
    "geocodeStatus": "success",
    "geocodeError": null
  },
  {
    "name": "大樹中正聯合",
    "address": "台北市中正區延平南路210號1樓",
    "type": "greattree",
    "direction": "北部",
    "county": "台北市",
    "district": "中正區",
    "lat": 25.0347608,
    "lng": 121.5074699,
    "geocodeStatus": "success",
    "geocodeError": null
  },
  {
    "name": "大樹內湖五分",
    "address": "台北市內湖區五分街64號",
    "type": "greattree",
    "direction": "北部",
    "county": "台北市",
    "district": "內湖區",
    "lat": 25.0671398,
    "lng": 121.6161197,
    "geocodeStatus": "success",
    "geocodeError": null
  },
  {
    "name": "大樹內湖文德",
    "address": "台北市內湖區文德路102號",
    "type": "greattree",
    "direction": "北部",
    "county": "台北市",
    "district": "內湖區",
    "lat": 25.078352,
    "lng": 121.5829476,
    "geocodeStatus": "success",
    "geocodeError": null
  },
  {
    "name": "大樹內湖東湖",
    "address": "台北市內湖區東湖路43巷2號",
    "type": "greattree",
    "direction": "北部",
    "county": "台北市",
    "district": "內湖區",
    "lat": 25.0690858,
    "lng": 121.614192,
    "geocodeStatus": "success",
    "geocodeError": null
  },
  {
    "name": "大樹內湖康雲",
    "address": "台北市內湖區康寧路一段116號",
    "type": "greattree",
    "direction": "北部",
    "county": "台北市",
    "district": "內湖區",
    "lat": 25.0794589,
    "lng": 121.593375,
    "geocodeStatus": "success",
    "geocodeError": null
  },
  {
    "name": "大樹內湖康樂",
    "address": "台北市內湖區康樂街72巷2號",
    "type": "greattree",
    "direction": "北部",
    "county": "台北市",
    "district": "內湖區",
    "lat": 25.0693947,
    "lng": 121.6184879,
    "geocodeStatus": "success",
    "geocodeError": null
  },
  {
    "name": "大樹文山木柵",
    "address": "台北市文山區木柵路三段108號",
    "type": "greattree",
    "direction": "北部",
    "county": "台北市",
    "district": "文山區",
    "lat": 24.9886582,
    "lng": 121.5675943,
    "geocodeStatus": "success",
    "geocodeError": null
  },
  {
    "name": "大樹文山興隆",
    "address": "台北市文山區興隆路三段13號",
    "type": "greattree",
    "direction": "北部",
    "county": "台北市",
    "district": "文山區",
    "lat": 25.000887,
    "lng": 121.555,
    "geocodeStatus": "success",
    "geocodeError": null
  },
  {
    "name": "大樹文山景美",
    "address": "台北市文山區羅斯福路六段234號",
    "type": "greattree",
    "direction": "北部",
    "county": "台北市",
    "district": "文山區",
    "lat": 24.9923902,
    "lng": 121.540408,
    "geocodeStatus": "success",
    "geocodeError": null
  },
  {
    "name": "大樹北投榮總",
    "address": "台北市北投區石牌路二段201號",
    "type": "greattree",
    "direction": "北部",
    "county": "台北市",
    "district": "北投區",
    "lat": 25.1221491,
    "lng": 121.5201589,
    "geocodeStatus": "success",
    "geocodeError": null
  },
  {
    "name": "大樹松山台安",
    "address": "台北市松山區八德路二段400號",
    "type": "greattree",
    "direction": "北部",
    "county": "台北市",
    "district": "松山區",
    "lat": 25.0480204,
    "lng": 121.5466491,
    "geocodeStatus": "success",
    "geocodeError": null
  },
  {
    "name": "大樹松山民生",
    "address": "台北市松山區民生東路五段107號",
    "type": "greattree",
    "direction": "北部",
    "county": "台北市",
    "district": "松山區",
    "lat": 25.0587993,
    "lng": 121.5601506,
    "geocodeStatus": "success",
    "geocodeError": null
  },
  {
    "name": "大樹松山新東",
    "address": "台北市松山區民生東路五段191號",
    "type": "greattree",
    "direction": "北部",
    "county": "台北市",
    "district": "松山區",
    "lat": 25.0592949,
    "lng": 121.565634,
    "geocodeStatus": "success",
    "geocodeError": null
  },
  {
    "name": "大樹松山延吉",
    "address": "台北市松山區延吉街44號",
    "type": "greattree",
    "direction": "北部",
    "county": "台北市",
    "district": "松山區",
    "lat": 25.0456107,
    "lng": 121.5535807,
    "geocodeStatus": "success",
    "geocodeError": null
  },
  {
    "name": "大樹松山健康",
    "address": "台北市松山區健康路5之1號",
    "type": "greattree",
    "direction": "北部",
    "county": "台北市",
    "district": "松山區",
    "lat": 25.0525048,
    "lng": 121.5525017,
    "geocodeStatus": "success",
    "geocodeError": null
  },
  {
    "name": "大樹信義市政",
    "address": "台北市信義區忠孝東路五段169號",
    "type": "greattree",
    "direction": "北部",
    "county": "台北市",
    "district": "信義區",
    "lat": 25.0412215,
    "lng": 121.5688305,
    "geocodeStatus": "success",
    "geocodeError": null
  },
  {
    "name": "大樹南港東明",
    "address": "台北市南港區東明街3號1樓",
    "type": "greattree",
    "direction": "北部",
    "county": "台北市",
    "district": "南港區",
    "lat": 25.056094,
    "lng": 121.6054538,
    "geocodeStatus": "success",
    "geocodeError": null
  },
  {
    "name": "大樹萬華西園",
    "address": "台北市萬華區西園路二段292號",
    "type": "greattree",
    "direction": "北部",
    "county": "台北市",
    "district": "萬華區",
    "lat": 25.0269204,
    "lng": 121.4935122,
    "geocodeStatus": "success",
    "geocodeError": null
  },
  {
    "name": "大樹萬華萬大",
    "address": "台北市萬華區萬大路248號",
    "type": "greattree",
    "direction": "北部",
    "county": "台北市",
    "district": "萬華區",
    "lat": 25.0262573,
    "lng": 121.5003148,
    "geocodeStatus": "success",
    "geocodeError": null
  },
  {
    "name": "大樹宜蘭泰山",
    "address": "宜蘭縣宜蘭市泰山路36號",
    "type": "greattree",
    "direction": "北部",
    "county": "宜蘭縣",
    "district": "宜蘭市",
    "lat": 24.7554213,
    "lng": 121.748393,
    "geocodeStatus": "success",
    "geocodeError": null
  },
  {
    "name": "大樹宜蘭礁溪",
    "address": "宜蘭縣礁溪鄉礁溪路四段100號",
    "type": "greattree",
    "direction": "北部",
    "county": "宜蘭縣",
    "district": "礁溪鄉",
    "lat": 24.8200935,
    "lng": 121.769326,
    "geocodeStatus": "success",
    "geocodeError": null
  },
  {
    "name": "大樹羅東林場",
    "address": "宜蘭縣羅東鎮倉前路22號",
    "type": "greattree",
    "direction": "北部",
    "county": "宜蘭縣",
    "district": "羅東鎮",
    "lat": 24.680545,
    "lng": 121.771832,
    "geocodeStatus": "success",
    "geocodeError": null
  },
  {
    "name": "大樹羅東興東",
    "address": "宜蘭縣羅東鎮興東路137號",
    "type": "greattree",
    "direction": "北部",
    "county": "宜蘭縣",
    "district": "羅東鎮",
    "lat": 24.6801807,
    "lng": 121.7690106,
    "geocodeStatus": "success",
    "geocodeError": null
  },
  {
    "name": "大樹蘇澳中山",
    "address": "宜蘭縣蘇澳鎮中山路一段94號",
    "type": "greattree",
    "direction": "北部",
    "county": "宜蘭縣",
    "district": "蘇澳鎮",
    "lat": 24.5961519,
    "lng": 121.850668,
    "geocodeStatus": "success",
    "geocodeError": null
  },
  {
    "name": "大樹八德中華",
    "address": "桃園市八德區中華路316號",
    "type": "greattree",
    "direction": "北部",
    "county": "桃園市",
    "district": "八德區",
    "lat": 24.9812995,
    "lng": 121.2754248,
    "geocodeStatus": "success",
    "geocodeError": null
  },
  {
    "name": "大樹大全聯八德",
    "address": "桃園市八德區介壽路二段148號",
    "type": "greattree",
    "direction": "北部",
    "county": "桃園市",
    "district": "八德區",
    "lat": 24.9538391,
    "lng": 121.2978613,
    "geocodeStatus": "success",
    "geocodeError": null
  },
  {
    "name": "大樹八德更寮腳",
    "address": "桃園市八德區介壽路二段982號",
    "type": "greattree",
    "direction": "北部",
    "county": "桃園市",
    "district": "八德區",
    "lat": 24.93405,
    "lng": 121.2972305,
    "geocodeStatus": "success",
    "geocodeError": null
  },
  {
    "name": "大樹八德大成",
    "address": "桃園市八德區廣福路12號",
    "type": "greattree",
    "direction": "北部",
    "county": "桃園市",
    "district": "八德區",
    "lat": 24.9587195,
    "lng": 121.2990312,
    "geocodeStatus": "success",
    "geocodeError": null
  },
  {
    "name": "大樹八德廣福",
    "address": "桃園市八德區廣福路260號",
    "type": "greattree",
    "direction": "北部",
    "county": "桃園市",
    "district": "八德區",
    "lat": 24.959716,
    "lng": 121.293014,
    "geocodeStatus": "success",
    "geocodeError": null
  },
  {
    "name": "大樹八德興豐",
    "address": "桃園市八德區興豐路577號",
    "type": "greattree",
    "direction": "北部",
    "county": "桃園市",
    "district": "八德區",
    "lat": 24.93075,
    "lng": 121.2935398,
    "geocodeStatus": "success",
    "geocodeError": null
  },
  {
    "name": "大樹大園中正",
    "address": "桃園市大園區中正東路75號",
    "type": "greattree",
    "direction": "北部",
    "county": "桃園市",
    "district": "大園區",
    "lat": 25.0631277,
    "lng": 121.2003114,
    "geocodeStatus": "success",
    "geocodeError": null
  },
  {
    "name": "大樹機場一航",
    "address": "桃園市大園區航站南路15號",
    "type": "greattree",
    "direction": "北部",
    "county": "桃園市",
    "district": "大園區",
    "lat": 25.0815415,
    "lng": 121.2375261,
    "geocodeStatus": "success",
    "geocodeError": null
  },
  {
    "name": "大樹大園菓林",
    "address": "桃園市大園區菓林路113號",
    "type": "greattree",
    "direction": "北部",
    "county": "桃園市",
    "district": "大園區",
    "lat": 25.0763288,
    "lng": 121.2578368,
    "geocodeStatus": "success",
    "geocodeError": null
  },
  {
    "name": "大樹大溪崎頂",
    "address": "桃園市大溪區介壽路892號",
    "type": "greattree",
    "direction": "北部",
    "county": "桃園市",
    "district": "大溪區",
    "lat": 24.9003,
    "lng": 121.2837586,
    "geocodeStatus": "success",
    "geocodeError": null
  },
  {
    "name": "大樹大溪康莊",
    "address": "桃園市大溪區康莊路160號",
    "type": "greattree",
    "direction": "北部",
    "county": "桃園市",
    "district": "大溪區",
    "lat": 24.8808181,
    "lng": 121.2885907,
    "geocodeStatus": "success",
    "geocodeError": null
  },
  {
    "name": "大樹中壢環東",
    "address": "桃園市中壢區中山東路二段193號",
    "type": "greattree",
    "direction": "北部",
    "county": "桃園市",
    "district": "中壢區",
    "lat": 24.9521194,
    "lng": 121.2402245,
    "geocodeStatus": "success",
    "geocodeError": null
  },
  {
    "name": "大樹中壢龍昌",
    "address": "桃園市中壢區中山東路四段46 號",
    "type": "greattree",
    "direction": "北部",
    "county": "桃園市",
    "district": "中壢區",
    "lat": 24.9361052,
    "lng": 121.2552814,
    "geocodeStatus": "success",
    "geocodeError": null
  },
  {
    "name": "大樹中壢中北",
    "address": "桃園市中壢區中北路二段39號",
    "type": "greattree",
    "direction": "北部",
    "county": "桃園市",
    "district": "中壢區",
    "lat": 24.9503151,
    "lng": 121.2240672,
    "geocodeStatus": "success",
    "geocodeError": null
  },
  {
    "name": "大樹中壢中正",
    "address": "桃園市中壢區中正路363號",
    "type": "greattree",
    "direction": "北部",
    "county": "桃園市",
    "district": "中壢區",
    "lat": 24.95535,
    "lng": 121.2162657,
    "geocodeStatus": "success",
    "geocodeError": null
  },
  {
    "name": "大樹內壢忠孝二",
    "address": "桃園市中壢區忠孝路198號",
    "type": "greattree",
    "direction": "北部",
    "county": "桃園市",
    "district": "中壢區",
    "lat": 24.9769605,
    "lng": 121.2550389,
    "geocodeStatus": "success",
    "geocodeError": null
  },
  {
    "name": "大樹內壢忠孝",
    "address": "桃園市中壢區忠孝路36號",
    "type": "greattree",
    "direction": "北部",
    "county": "桃園市",
    "district": "中壢區",
    "lat": 24.9734685,
    "lng": 121.2565215,
    "geocodeStatus": "success",
    "geocodeError": null
  },
  {
    "name": "大樹大全聯青埔",
    "address": "桃園市中壢區高鐵站前東路一段1號",
    "type": "greattree",
    "direction": "北部",
    "county": "桃園市",
    "district": "中壢區",
    "lat": 25.0129593,
    "lng": 121.2175658,
    "geocodeStatus": "success",
    "geocodeError": null
  },
  {
    "name": "大樹中壢華勛",
    "address": "桃園市中壢區華勛街112號",
    "type": "greattree",
    "direction": "北部",
    "county": "桃園市",
    "district": "中壢區",
    "lat": 24.9507767,
    "lng": 121.2597209,
    "geocodeStatus": "success",
    "geocodeError": null
  },
  {
    "name": "大樹中壢福州",
    "address": "桃園市中壢區福州二街481號",
    "type": "greattree",
    "direction": "北部",
    "county": "桃園市",
    "district": "中壢區",
    "lat": 24.9683303,
    "lng": 121.2336955,
    "geocodeStatus": "success",
    "geocodeError": null
  },
  {
    "name": "大樹中壢領航",
    "address": "桃園市中壢區領航南路二段208號",
    "type": "greattree",
    "direction": "北部",
    "county": "桃園市",
    "district": "中壢區",
    "lat": 25.0040438,
    "lng": 121.2140783,
    "geocodeStatus": "success",
    "geocodeError": null
  },
  {
    "name": "大樹中壢龍樹",
    "address": "桃園市中壢區龍東路205號",
    "type": "greattree",
    "direction": "北部",
    "county": "桃園市",
    "district": "中壢區",
    "lat": 24.9297392,
    "lng": 121.2530232,
    "geocodeStatus": "success",
    "geocodeError": null
  },
  {
    "name": "大樹平鎮中豐",
    "address": "桃園市平鎮區中豐路山頂段164號",
    "type": "greattree",
    "direction": "北部",
    "county": "桃園市",
    "district": "平鎮區",
    "lat": 24.9003691,
    "lng": 121.2109064,
    "geocodeStatus": "success",
    "geocodeError": null
  },
  {
    "name": "大樹 平鎮環南",
    "address": "桃園市平鎮區環南路225號",
    "type": "greattree",
    "direction": "北部",
    "county": "桃園市",
    "district": "平鎮區",
    "lat": 24.9519117,
    "lng": 121.2069395,
    "geocodeStatus": "success",
    "geocodeError": null
  },
  {
    "name": "大樹桃園大業",
    "address": "桃園市桃園區大業路一段139號",
    "type": "greattree",
    "direction": "北部",
    "county": "桃園市",
    "district": "桃園區",
    "lat": 25.0075372,
    "lng": 121.3157563,
    "geocodeStatus": "success",
    "geocodeError": null
  },
  {
    "name": "大樹桃園藝文",
    "address": "桃園市桃園區大興西路一段165號",
    "type": "greattree",
    "direction": "北部",
    "county": "桃園市",
    "district": "桃園區",
    "lat": 25.0142854,
    "lng": 121.3050569,
    "geocodeStatus": "success",
    "geocodeError": null
  },
  {
    "name": "大樹桃園大興",
    "address": "桃園市桃園區大興西路二段76巷3號",
    "type": "greattree",
    "direction": "北部",
    "county": "桃園市",
    "district": "桃園區",
    "lat": 25.0118243,
    "lng": 121.2983344,
    "geocodeStatus": "success",
    "geocodeError": null
  },
  {
    "name": "大樹桃園中山",
    "address": "桃園市桃園區中山路707號",
    "type": "greattree",
    "direction": "北部",
    "county": "桃園市",
    "district": "桃園區",
    "lat": 24.9906829,
    "lng": 121.2913804,
    "geocodeStatus": "success",
    "geocodeError": null
  },
  {
    "name": "大樹桃園中山二",
    "address": "桃園市桃園區中山路828號",
    "type": "greattree",
    "direction": "北部",
    "county": "桃園市",
    "district": "桃園區",
    "lat": 24.9909145,
    "lng": 121.2903206,
    "geocodeStatus": "success",
    "geocodeError": null
  },
  {
    "name": "大樹桃園中正",
    "address": "桃園市桃園區中正路373號",
    "type": "greattree",
    "direction": "北部",
    "county": "桃園市",
    "district": "桃園區",
    "lat": 24.999603,
    "lng": 121.3077378,
    "geocodeStatus": "success",
    "geocodeError": null
  },
  {
    "name": "大樹桃園中正二",
    "address": "桃園市桃園區中正路569號",
    "type": "greattree",
    "direction": "北部",
    "county": "桃園市",
    "district": "桃園區",
    "lat": 25.0040542,
    "lng": 121.3049628,
    "geocodeStatus": "success",
    "geocodeError": null
  },
  {
    "name": "大樹桃園永安",
    "address": "桃園市桃園區永安路232.號",
    "type": "greattree",
    "direction": "北部",
    "county": "桃園市",
    "district": "桃園區",
    "lat": 24.9980015,
    "lng": 121.3047039,
    "geocodeStatus": "success",
    "geocodeError": null
  },
  {
    "name": "大樹桃園南平",
    "address": "桃園市桃園區南平路302-1號1樓",
    "type": "greattree",
    "direction": "北部",
    "county": "桃園市",
    "district": "桃園區",
    "lat": 25.0185614,
    "lng": 121.2987865,
    "geocodeStatus": "success",
    "geocodeError": null
  },
  {
    "name": "大樹桃園南平二店",
    "address": "桃園市桃園區南平路302號",
    "type": "greattree",
    "direction": "北部",
    "county": "桃園市",
    "district": "桃園區",
    "lat": 25.0186102,
    "lng": 121.2988533,
    "geocodeStatus": "success",
    "geocodeError": null
  },
  {
    "name": "大樹桃園寶安",
    "address": "桃園市桃園區南平路556號",
    "type": "greattree",
    "direction": "北部",
    "county": "桃園市",
    "district": "桃園區",
    "lat": 25.0159625,
    "lng": 121.2928483,
    "geocodeStatus": "success",
    "geocodeError": null
  },
  {
    "name": "大樹桃園春日",
    "address": "桃園市桃園區春日路878號",
    "type": "greattree",
    "direction": "北部",
    "county": "桃園市",
    "district": "桃園區",
    "lat": 25.0156089,
    "lng": 121.3096056,
    "geocodeStatus": "success",
    "geocodeError": null
  },
  {
    "name": "大樹桃園桃鶯",
    "address": "桃園市桃園區桃鶯路102號",
    "type": "greattree",
    "direction": "北部",
    "county": "桃園市",
    "district": "桃園區",
    "lat": 24.9851566,
    "lng": 121.3180113,
    "geocodeStatus": "success",
    "geocodeError": null
  },
  {
    "name": "大樹桃園寶山",
    "address": "桃園市桃園區寶山街72號",
    "type": "greattree",
    "direction": "北部",
    "county": "桃園市",
    "district": "桃園區",
    "lat": 25.0128716,
    "lng": 121.3174837,
    "geocodeStatus": "success",
    "geocodeError": null
  },
  {
    "name": "大樹新屋中山",
    "address": "桃園市新屋區中山路324號",
    "type": "greattree",
    "direction": "北部",
    "county": "桃園市",
    "district": "新屋區",
    "lat": 24.9728923,
    "lng": 121.1051986,
    "geocodeStatus": "success",
    "geocodeError": null
  },
  {
    "name": "大樹楊梅大成",
    "address": "桃園市楊梅區大成路124號",
    "type": "greattree",
    "direction": "北部",
    "county": "桃園市",
    "district": "楊梅區",
    "lat": 24.9114859,
    "lng": 121.145811,
    "geocodeStatus": "success",
    "geocodeError": null
  },
  {
    "name": "大樹楊梅文化",
    "address": "桃園市楊梅區文化街275號",
    "type": "greattree",
    "direction": "北部",
    "county": "桃園市",
    "district": "楊梅區",
    "lat": 24.9105563,
    "lng": 121.1829017,
    "geocodeStatus": "success",
    "geocodeError": null
  },
  {
    "name": "大樹楊梅埔心",
    "address": "桃園市楊梅區永美路225號",
    "type": "greattree",
    "direction": "北部",
    "county": "桃園市",
    "district": "楊梅區",
    "lat": 24.9192112,
    "lng": 121.1840512,
    "geocodeStatus": "success",
    "geocodeError": null
  },
  {
    "name": "大樹楊梅新農",
    "address": "桃園市楊梅區新農街509號",
    "type": "greattree",
    "direction": "北部",
    "county": "桃園市",
    "district": "楊梅區",
    "lat": 24.9128674,
    "lng": 121.1608712,
    "geocodeStatus": "success",
    "geocodeError": null
  },
  {
    "name": "大樹龍潭中正",
    "address": "桃園市龍潭區中正路三林段146號",
    "type": "greattree",
    "direction": "北部",
    "county": "桃園市",
    "district": "龍潭區",
    "lat": 24.8504337,
    "lng": 121.2277246,
    "geocodeStatus": "success",
    "geocodeError": null
  },
  {
    "name": "大樹龍潭北龍",
    "address": "桃園市龍潭區北龍路275號",
    "type": "greattree",
    "direction": "北部",
    "county": "桃園市",
    "district": "龍潭區",
    "lat": 24.8679912,
    "lng": 121.2173442,
    "geocodeStatus": "success",
    "geocodeError": null
  },
  {
    "name": "大樹蘆竹南崁",
    "address": "桃園市龜山區南祥路46號",
    "type": "greattree",
    "direction": "北部",
    "county": "桃園市",
    "district": "龜山區",
    "lat": 25.0462459,
    "lng": 121.29756,
    "geocodeStatus": "success",
    "geocodeError": null
  },
  {
    "name": "大樹龜山長庚",
    "address": "桃園市龜山區復興一路102號",
    "type": "greattree",
    "direction": "北部",
    "county": "桃園市",
    "district": "龜山區",
    "lat": 25.059243,
    "lng": 121.3679364,
    "geocodeStatus": "success",
    "geocodeError": null
  },
  {
    "name": "大樹龜山龍華",
    "address": "桃園市龜山區萬壽路一段287號",
    "type": "greattree",
    "direction": "北部",
    "county": "桃園市",
    "district": "龜山區",
    "lat": 25.0172515,
    "lng": 121.403222,
    "geocodeStatus": "success",
    "geocodeError": null
  },
  {
    "name": "大樹龜山萬壽",
    "address": "桃園市龜山區萬壽路二段896號",
    "type": "greattree",
    "direction": "北部",
    "county": "桃園市",
    "district": "龜山區",
    "lat": 24.9958944,
    "lng": 121.3393083,
    "geocodeStatus": "success",
    "geocodeError": null
  },
  {
    "name": "大樹蘆竹大竹",
    "address": "桃園市蘆竹區大竹路365號",
    "type": "greattree",
    "direction": "北部",
    "county": "桃園市",
    "district": "蘆竹區",
    "lat": 25.020077,
    "lng": 121.265077,
    "geocodeStatus": "success",
    "geocodeError": null
  },
  {
    "name": "大樹南崁中正",
    "address": "桃園市蘆竹區中正路251號",
    "type": "greattree",
    "direction": "北部",
    "county": "桃園市",
    "district": "蘆竹區",
    "lat": 25.0469823,
    "lng": 121.2920813,
    "geocodeStatus": "success",
    "geocodeError": null
  },
  {
    "name": "大樹觀音中山",
    "address": "桃園市觀音區中山路二段786號1 樓",
    "type": "greattree",
    "direction": "北部",
    "county": "桃園市",
    "district": "觀音區",
    "lat": 25.0107387,
    "lng": 121.1393206,
    "geocodeStatus": "success",
    "geocodeError": null
  },
  {
    "name": "大樹基隆復興",
    "address": "基隆市中山區復興路128號",
    "type": "greattree",
    "direction": "北部",
    "county": "基隆市",
    "district": "中山區",
    "lat": 25.144637,
    "lng": 121.726233,
    "geocodeStatus": "success",
    "geocodeError": null
  },
  {
    "name": "大樹基隆新豐",
    "address": "基隆市中正區新豐街385號",
    "type": "greattree",
    "direction": "北部",
    "county": "基隆市",
    "district": "中正區",
    "lat": 25.1353823,
    "lng": 121.7856285,
    "geocodeStatus": "success",
    "geocodeError": null
  },
  {
    "name": "大樹基隆安樂",
    "address": "基隆市安樂區基金一路200號",
    "type": "greattree",
    "direction": "北部",
    "county": "基隆市",
    "district": "安樂區",
    "lat": 25.1416905,
    "lng": 121.710267,
    "geocodeStatus": "success",
    "geocodeError": null
  },
  {
    "name": "大樹基隆樂利",
    "address": "基隆市安樂區樂利三街22-7號",
    "type": "greattree",
    "direction": "北部",
    "county": "基隆市",
    "district": "安樂區",
    "lat": 25.1297036,
    "lng": 121.7172913,
    "geocodeStatus": "success",
    "geocodeError": null
  },
  {
    "name": "大樹基隆東信",
    "address": "基隆市信義區東信路168號",
    "type": "greattree",
    "direction": "北部",
    "county": "基隆市",
    "district": "信義區",
    "lat": 25.1282475,
    "lng": 121.7645635,
    "geocodeStatus": "success",
    "geocodeError": null
  },
  {
    "name": "大樹八里中山",
    "address": "新北市八里區中山路二段432號",
    "type": "greattree",
    "direction": "北部",
    "county": "新北市",
    "district": "八里區",
    "lat": 25.1475534,
    "lng": 121.3997505,
    "geocodeStatus": "success",
    "geocodeError": null
  },
  {
    "name": "大樹三重中正",
    "address": "新北市三重區中正北路213號",
    "type": "greattree",
    "direction": "北部",
    "county": "新北市",
    "district": "三重區",
    "lat": 25.0702751,
    "lng": 121.4764434,
    "geocodeStatus": "success",
    "geocodeError": null
  },
  {
    "name": "大樹三重仁義",
    "address": "新北市三重區仁義街192號",
    "type": "greattree",
    "direction": "北部",
    "county": "新北市",
    "district": "三重區",
    "lat": 25.0818453,
    "lng": 121.4966171,
    "geocodeStatus": "success",
    "geocodeError": null
  },
  {
    "name": "大樹三重正義",
    "address": "新北市三重區正義北路66號",
    "type": "greattree",
    "direction": "北部",
    "county": "新北市",
    "district": "三重區",
    "lat": 25.064198,
    "lng": 121.497182,
    "geocodeStatus": "success",
    "geocodeError": null
  },
  {
    "name": "大樹三重車路頭",
    "address": "新北市三重區車路頭街91號",
    "type": "greattree",
    "direction": "北部",
    "county": "新北市",
    "district": "三重區",
    "lat": 25.0742344,
    "lng": 121.4845443,
    "geocodeStatus": "success",
    "geocodeError": null
  },
  {
    "name": "大樹三重重陽",
    "address": "新北市三重區重陽路四段36號",
    "type": "greattree",
    "direction": "北部",
    "county": "新北市",
    "district": "三重區",
    "lat": 25.069797,
    "lng": 121.491131,
    "geocodeStatus": "success",
    "geocodeError": null
  },
  {
    "name": "大樹三重重新",
    "address": "新北市三重區重新路四段12號",
    "type": "greattree",
    "direction": "北部",
    "county": "新北市",
    "district": "三重區",
    "lat": 25.0576694,
    "lng": 121.4887254,
    "geocodeStatus": "success",
    "geocodeError": null
  },
  {
    "name": "大樹三重集美",
    "address": "新北市三重區集美街178號",
    "type": "greattree",
    "direction": "北部",
    "county": "新北市",
    "district": "三重區",
    "lat": 25.0533572,
    "lng": 121.4903787,
    "geocodeStatus": "success",
    "geocodeError": null
  },
  {
    "name": "大樹三重慈愛",
    "address": "新北市三重區慈愛街51號",
    "type": "greattree",
    "direction": "北部",
    "county": "新北市",
    "district": "三重區",
    "lat": 25.0790212,
    "lng": 121.4861644,
    "geocodeStatus": "success",
    "geocodeError": null
  },
  {
    "name": "大樹三峽介壽",
    "address": "新北市三峽區介壽路一段27號",
    "type": "greattree",
    "direction": "北部",
    "county": "新北市",
    "district": "三峽區",
    "lat": 24.9333275,
    "lng": 121.3755971,
    "geocodeStatus": "success",
    "geocodeError": null
  },
  {
    "name": "大樹土城中央",
    "address": "新北市土城區中央路二段84號",
    "type": "greattree",
    "direction": "北部",
    "county": "新北市",
    "district": "土城區",
    "lat": 24.978868,
    "lng": 121.442237,
    "geocodeStatus": "success",
    "geocodeError": null
  },
  {
    "name": "大樹土城永安",
    "address": "新北市土城區永安街25號",
    "type": "greattree",
    "direction": "北部",
    "county": "新北市",
    "district": "土城區",
    "lat": 24.9638392,
    "lng": 121.4343686,
    "geocodeStatus": "success",
    "geocodeError": null
  },
  {
    "name": "大樹土城裕民",
    "address": "新北市土城區裕民路280號",
    "type": "greattree",
    "direction": "北部",
    "county": "新北市",
    "district": "土城區",
    "lat": 24.9819295,
    "lng": 121.4552969,
    "geocodeStatus": "success",
    "geocodeError": null
  },
  {
    "name": "大樹中和中山",
    "address": "新北市中和區中山路三段178號",
    "type": "greattree",
    "direction": "北部",
    "county": "新北市",
    "district": "中和區",
    "lat": 25.0065055,
    "lng": 121.4726588,
    "geocodeStatus": "success",
    "geocodeError": null
  },
  {
    "name": "大樹中和四維",
    "address": "新北市中和區四維街37巷2號",
    "type": "greattree",
    "direction": "北部",
    "county": "新北市",
    "district": "中和區",
    "lat": 24.9868745,
    "lng": 121.5125446,
    "geocodeStatus": "success",
    "geocodeError": null
  },
  {
    "name": "大樹中和自強",
    "address": "新北市中和區自強路42號",
    "type": "greattree",
    "direction": "北部",
    "county": "新北市",
    "district": "中和區",
    "lat": 24.9951235,
    "lng": 121.5199358,
    "geocodeStatus": "success",
    "geocodeError": null
  },
  {
    "name": "大樹中和宜安",
    "address": "新北市中和區宜安路146號",
    "type": "greattree",
    "direction": "北部",
    "county": "新北市",
    "district": "中和區",
    "lat": 24.9986257,
    "lng": 121.509616,
    "geocodeStatus": "success",
    "geocodeError": null
  },
  {
    "name": "大樹中和景新",
    "address": "新北市中和區景新街383巷50號",
    "type": "greattree",
    "direction": "北部",
    "county": "新北市",
    "district": "中和區",
    "lat": 24.9907491,
    "lng": 121.5144633,
    "geocodeStatus": "success",
    "geocodeError": null
  },
  {
    "name": "大樹五股成泰",
    "address": "新北市五股區成泰路一段235之2號",
    "type": "greattree",
    "direction": "北部",
    "county": "新北市",
    "district": "五股區",
    "lat": 25.0797871,
    "lng": 121.4362128,
    "geocodeStatus": "success",
    "geocodeError": null
  },
  {
    "name": "大樹永和福和",
    "address": "新北市永和區福和路143號",
    "type": "greattree",
    "direction": "北部",
    "county": "新北市",
    "district": "永和區",
    "lat": 25.0076494,
    "lng": 121.5207369,
    "geocodeStatus": "success",
    "geocodeError": null
  },
  {
    "name": "大樹汐止仁愛",
    "address": "新北市汐止區仁愛路333號",
    "type": "greattree",
    "direction": "北部",
    "county": "新北市",
    "district": "汐止區",
    "lat": 25.0679209,
    "lng": 121.6639515,
    "geocodeStatus": "success",
    "geocodeError": null
  },
  {
    "name": "大樹汐止同興",
    "address": "新北市汐止區同興路121號",
    "type": "greattree",
    "direction": "北部",
    "county": "新北市",
    "district": "汐止區",
    "lat": 25.0619661,
    "lng": 121.6368434,
    "geocodeStatus": "success",
    "geocodeError": null
  },
  {
    "name": "大樹汐止康寧",
    "address": "新北市汐止區康寧街424號",
    "type": "greattree",
    "direction": "北部",
    "county": "新北市",
    "district": "汐止區",
    "lat": 25.0681356,
    "lng": 121.6308214,
    "geocodeStatus": "success",
    "geocodeError": null
  },
  {
    "name": "大樹板橋大仁",
    "address": "新北市板橋區大仁街39號",
    "type": "greattree",
    "direction": "北部",
    "county": "新北市",
    "district": "板橋區",
    "lat": 25.016616,
    "lng": 121.4550261,
    "geocodeStatus": "success",
    "geocodeError": null
  },
  {
    "name": "大樹板橋四維",
    "address": "新北市板橋區四維路146號",
    "type": "greattree",
    "direction": "北部",
    "county": "新北市",
    "district": "板橋區",
    "lat": 25.0255843,
    "lng": 121.4651704,
    "geocodeStatus": "success",
    "geocodeError": null
  },
  {
    "name": "大樹板橋忠孝",
    "address": "新北市板橋區忠孝路28號",
    "type": "greattree",
    "direction": "北部",
    "county": "新北市",
    "district": "板橋區",
    "lat": 25.0017675,
    "lng": 121.4602728,
    "geocodeStatus": "success",
    "geocodeError": null
  },
  {
    "name": "大樹板橋松柏",
    "address": "新北市板橋區松柏街94號",
    "type": "greattree",
    "direction": "北部",
    "county": "新北市",
    "district": "板橋區",
    "lat": 25.0306695,
    "lng": 121.4768035,
    "geocodeStatus": "success",
    "geocodeError": null
  },
  {
    "name": "大樹板橋國慶",
    "address": "新北市板橋區國慶路127號",
    "type": "greattree",
    "direction": "北部",
    "county": "新北市",
    "district": "板橋區",
    "lat": 24.9959903,
    "lng": 121.4607623,
    "geocodeStatus": "success",
    "geocodeError": null
  },
  {
    "name": "大樹板橋莊敬",
    "address": "新北市板橋區莊敬路163號",
    "type": "greattree",
    "direction": "北部",
    "county": "新北市",
    "district": "板橋區",
    "lat": 25.0245875,
    "lng": 121.4714829,
    "geocodeStatus": "success",
    "geocodeError": null
  },
  {
    "name": "大樹板橋裕民",
    "address": "新北市板橋區裕民街145號",
    "type": "greattree",
    "direction": "北部",
    "county": "新北市",
    "district": "板橋區",
    "lat": 25.0271309,
    "lng": 121.4587913,
    "geocodeStatus": "success",
    "geocodeError": null
  },
  {
    "name": "大樹林口文化",
    "address": "新北市林口區文化三路一段425號",
    "type": "greattree",
    "direction": "北部",
    "county": "新北市",
    "district": "林口區",
    "lat": 25.0744142,
    "lng": 121.367542,
    "geocodeStatus": "success",
    "geocodeError": null
  },
  {
    "name": "大樹林口忠孝",
    "address": "新北市林口區忠孝路373號",
    "type": "greattree",
    "direction": "北部",
    "county": "新北市",
    "district": "林口區",
    "lat": 25.0717958,
    "lng": 121.3693523,
    "geocodeStatus": "success",
    "geocodeError": null
  },
  {
    "name": "大樹泰山全興",
    "address": "新北市泰山區全興路214號",
    "type": "greattree",
    "direction": "北部",
    "county": "新北市",
    "district": "泰山區",
    "lat": 25.0558666,
    "lng": 121.4340784,
    "geocodeStatus": "success",
    "geocodeError": null
  },
  {
    "name": "大樹泰山同榮",
    "address": "新北市泰山區明志路一段332號",
    "type": "greattree",
    "direction": "北部",
    "county": "新北市",
    "district": "泰山區",
    "lat": 25.0588174,
    "lng": 121.4311266,
    "geocodeStatus": "success",
    "geocodeError": null
  },
  {
    "name": "大樹泰山明志",
    "address": "新北市泰山區明志路二段81號 ",
    "type": "greattree",
    "direction": "北部",
    "county": "新北市",
    "district": "泰山區",
    "lat": 25.0523135,
    "lng": 121.428883,
    "geocodeStatus": "success",
    "geocodeError": null
  },
  {
    "name": "大樹淡水中山",
    "address": "新北市淡水區中山路127號",
    "type": "greattree",
    "direction": "北部",
    "county": "新北市",
    "district": "淡水區",
    "lat": 25.1711288,
    "lng": 121.4413771,
    "geocodeStatus": "success",
    "geocodeError": null
  },
  {
    "name": "大樹淡水水源",
    "address": "新北市淡水區水源街一段133號",
    "type": "greattree",
    "direction": "北部",
    "county": "新北市",
    "district": "淡水區",
    "lat": 25.1720262,
    "lng": 121.4470961,
    "geocodeStatus": "success",
    "geocodeError": null
  },
  {
    "name": "大樹淡水民權",
    "address": "新北市淡水區民權路27-1號",
    "type": "greattree",
    "direction": "北部",
    "county": "新北市",
    "district": "淡水區",
    "lat": 25.141159,
    "lng": 121.4598729,
    "geocodeStatus": "success",
    "geocodeError": null
  },
  {
    "name": "大樹淡水新春",
    "address": "新北市淡水區新春街189號",
    "type": "greattree",
    "direction": "北部",
    "county": "新北市",
    "district": "淡水區",
    "lat": 25.1810492,
    "lng": 121.4439291,
    "geocodeStatus": "success",
    "geocodeError": null
  },
  {
    "name": "大樹新店北新店",
    "address": "新北市新店區北新路二段102號",
    "type": "greattree",
    "direction": "北部",
    "county": "新北市",
    "district": "新店區",
    "lat": 24.9738071,
    "lng": 121.5431776,
    "geocodeStatus": "success",
    "geocodeError": null
  },
  {
    "name": "大樹新店安康",
    "address": "新北市新店區安康路二段108號",
    "type": "greattree",
    "direction": "北部",
    "county": "新北市",
    "district": "新店區",
    "lat": 24.9630125,
    "lng": 121.5133523,
    "geocodeStatus": "success",
    "geocodeError": null
  },
  {
    "name": "大樹新莊丹鳳",
    "address": "新北市新莊區中正路745號",
    "type": "greattree",
    "direction": "北部",
    "county": "新北市",
    "district": "新莊區",
    "lat": 25.0285232,
    "lng": 121.42253,
    "geocodeStatus": "success",
    "geocodeError": null
  },
  {
    "name": "大樹新莊中港",
    "address": "新北市新莊區中港路289號",
    "type": "greattree",
    "direction": "北部",
    "county": "新北市",
    "district": "新莊區",
    "lat": 25.044193,
    "lng": 121.452735,
    "geocodeStatus": "success",
    "geocodeError": null
  },
  {
    "name": "大樹新莊民安",
    "address": "新北市新莊區民安東路10號",
    "type": "greattree",
    "direction": "北部",
    "county": "新北市",
    "district": "新莊區",
    "lat": 25.020848,
    "lng": 121.4280056,
    "geocodeStatus": "success",
    "geocodeError": null
  },
  {
    "name": "大樹新莊幸福",
    "address": "新北市新莊區幸福路672號",
    "type": "greattree",
    "direction": "北部",
    "county": "新北市",
    "district": "新莊區",
    "lat": 25.0494716,
    "lng": 121.4508047,
    "geocodeStatus": "success",
    "geocodeError": null
  },
  {
    "name": "大樹新莊昌平",
    "address": "新北市新莊區昌平街6號",
    "type": "greattree",
    "direction": "北部",
    "county": "新北市",
    "district": "新莊區",
    "lat": 25.0525901,
    "lng": 121.4549016,
    "geocodeStatus": "success",
    "geocodeError": null
  },
  {
    "name": "大樹新莊建安",
    "address": "新北市新莊區建安里建安街117號",
    "type": "greattree",
    "direction": "北部",
    "county": "新北市",
    "district": "新莊區",
    "lat": 25.0239549,
    "lng": 121.4262618,
    "geocodeStatus": "success",
    "geocodeError": null
  },
  {
    "name": "大樹新莊新泰",
    "address": "新北市新莊區新泰路59號",
    "type": "greattree",
    "direction": "北部",
    "county": "新北市",
    "district": "新莊區",
    "lat": 25.0340638,
    "lng": 121.4493351,
    "geocodeStatus": "success",
    "geocodeError": null
  },
  {
    "name": "大樹瑞芳明燈",
    "address": "新北市瑞芳區明燈路三段59-1號",
    "type": "greattree",
    "direction": "北部",
    "county": "新北市",
    "district": "瑞芳區",
    "lat": 25.1081066,
    "lng": 121.8057661,
    "geocodeStatus": "success",
    "geocodeError": null
  },
  {
    "name": "大樹樹林育英",
    "address": "新北市樹林區育英街54號",
    "type": "greattree",
    "direction": "北部",
    "county": "新北市",
    "district": "樹林區",
    "lat": 24.9893207,
    "lng": 121.4213549,
    "geocodeStatus": "success",
    "geocodeError": null
  },
  {
    "name": "大樹蘆洲民族",
    "address": "新北市蘆洲區民族路265號",
    "type": "greattree",
    "direction": "北部",
    "county": "新北市",
    "district": "蘆洲區",
    "lat": 25.0906171,
    "lng": 121.4762454,
    "geocodeStatus": "success",
    "geocodeError": null
  },
  {
    "name": "大樹蘆洲長安",
    "address": "新北市蘆洲區長安街66號",
    "type": "greattree",
    "direction": "北部",
    "county": "新北市",
    "district": "蘆洲區",
    "lat": 25.0800979,
    "lng": 121.4628206,
    "geocodeStatus": "success",
    "geocodeError": null
  },
  {
    "name": "大樹蘆洲長榮",
    "address": "新北市蘆洲區長榮路61號",
    "type": "greattree",
    "direction": "北部",
    "county": "新北市",
    "district": "蘆洲區",
    "lat": 25.0832938,
    "lng": 121.4624449,
    "geocodeStatus": "success",
    "geocodeError": null
  },
  {
    "name": "大樹蘆洲集賢",
    "address": "新北市蘆洲區集賢路306號",
    "type": "greattree",
    "direction": "北部",
    "county": "新北市",
    "district": "蘆洲區",
    "lat": 25.0853828,
    "lng": 121.4812122,
    "geocodeStatus": "success",
    "geocodeError": null
  },
  {
    "name": "大樹鶯歌國慶",
    "address": "新北市鶯歌區國慶街30號",
    "type": "greattree",
    "direction": "北部",
    "county": "新北市",
    "district": "鶯歌區",
    "lat": 24.9557258,
    "lng": 121.3495049,
    "geocodeStatus": "success",
    "geocodeError": null
  },
  {
    "name": "大樹鶯歌鶯桃",
    "address": "新北市鶯歌區鶯桃路二段11號",
    "type": "greattree",
    "direction": "北部",
    "county": "新北市",
    "district": "鶯歌區",
    "lat": 24.9719861,
    "lng": 121.3258026,
    "geocodeStatus": "success",
    "geocodeError": null
  },
  {
    "name": "大樹新竹中正",
    "address": "新竹市北區中正路360號",
    "type": "greattree",
    "direction": "北部",
    "county": "新竹市",
    "district": "北區",
    "lat": 24.8142599,
    "lng": 120.963096,
    "geocodeStatus": "success",
    "geocodeError": null
  },
  {
    "name": "大樹新竹光復",
    "address": "新竹市北區光復路一段332號",
    "type": "greattree",
    "direction": "北部",
    "county": "新竹市",
    "district": "北區",
    "lat": 24.7829004,
    "lng": 121.0186925,
    "geocodeStatus": "success",
    "geocodeError": null
  },
  {
    "name": "大樹新竹西大",
    "address": "新竹市北區西大路540號",
    "type": "greattree",
    "direction": "北部",
    "county": "新竹市",
    "district": "北區",
    "lat": 24.8058287,
    "lng": 120.9628922,
    "geocodeStatus": "success",
    "geocodeError": null
  },
  {
    "name": "大樹新竹竹科",
    "address": "新竹市東區工業東二路1號",
    "type": "greattree",
    "direction": "北部",
    "county": "新竹市",
    "district": "東區",
    "lat": 24.7798448,
    "lng": 121.0056449,
    "geocodeStatus": "success",
    "geocodeError": null
  },
  {
    "name": "大樹新竹田美",
    "address": "新竹市東區田美三街35-1號",
    "type": "greattree",
    "direction": "北部",
    "county": "新竹市",
    "district": "東區",
    "lat": 24.8156217,
    "lng": 120.9767815,
    "geocodeStatus": "success",
    "geocodeError": null
  },
  {
    "name": "大樹新竹香山",
    "address": "新竹市香山區香山區中華路四段576號",
    "type": "greattree",
    "direction": "北部",
    "county": "新竹市",
    "district": "香山區",
    "lat": 24.78882,
    "lng": 120.9295625,
    "geocodeStatus": "success",
    "geocodeError": null
  },
  {
    "name": "大樹香山經國",
    "address": "新竹市香山區經國路3段2巷6號",
    "type": "greattree",
    "direction": "北部",
    "county": "新竹市",
    "district": "香山區",
    "lat": 24.8005877,
    "lng": 120.9535933,
    "geocodeStatus": "success",
    "geocodeError": null
  },
  {
    "name": "大樹竹北中華",
    "address": "新竹縣竹北市中華路226號",
    "type": "greattree",
    "direction": "北部",
    "county": "新竹縣",
    "district": "竹北市",
    "lat": 24.8312042,
    "lng": 121.002621,
    "geocodeStatus": "success",
    "geocodeError": null
  },
  {
    "name": "大樹竹北六家",
    "address": "新竹縣竹北市六家一路一段163號",
    "type": "greattree",
    "direction": "北部",
    "county": "新竹縣",
    "district": "竹北市",
    "lat": 24.8097004,
    "lng": 121.0288689,
    "geocodeStatus": "success",
    "geocodeError": null
  },
  {
    "name": "大樹竹北光明",
    "address": "新竹縣竹北市光明一路137號",
    "type": "greattree",
    "direction": "北部",
    "county": "新竹縣",
    "district": "竹北市",
    "lat": 24.8302944,
    "lng": 121.0156788,
    "geocodeStatus": "success",
    "geocodeError": null
  },
  {
    "name": "大樹竹北成功",
    "address": "新竹縣竹北市成功三路69號",
    "type": "greattree",
    "direction": "北部",
    "county": "新竹縣",
    "district": "竹北市",
    "lat": 24.8194512,
    "lng": 121.0238778,
    "geocodeStatus": "success",
    "geocodeError": null
  },
  {
    "name": "大樹竹北莊敬",
    "address": "新竹縣竹北市莊敬五街75 號",
    "type": "greattree",
    "direction": "北部",
    "county": "新竹縣",
    "district": "竹北市",
    "lat": 24.8234971,
    "lng": 121.0268119,
    "geocodeStatus": "success",
    "geocodeError": null
  },
  {
    "name": "大樹竹北勝利",
    "address": "新竹縣竹北市勝利十街76號",
    "type": "greattree",
    "direction": "北部",
    "county": "新竹縣",
    "district": "竹北市",
    "lat": 24.8255789,
    "lng": 121.0297077,
    "geocodeStatus": "success",
    "geocodeError": null
  },
  {
    "name": "大樹 竹北博愛",
    "address": "新竹縣竹北市博愛街357號",
    "type": "greattree",
    "direction": "北部",
    "county": "新竹縣",
    "district": "竹北市",
    "lat": 24.8363891,
    "lng": 121.0083517,
    "geocodeStatus": "success",
    "geocodeError": null
  },
  {
    "name": "大樹竹北中興",
    "address": "新竹縣竹北市福興東路二段97號",
    "type": "greattree",
    "direction": "北部",
    "county": "新竹縣",
    "district": "竹北市",
    "lat": 24.8149365,
    "lng": 121.0282623,
    "geocodeStatus": "success",
    "geocodeError": null
  },
  {
    "name": "大樹竹北福興",
    "address": "新竹縣竹北市福興路753號",
    "type": "greattree",
    "direction": "北部",
    "county": "新竹縣",
    "district": "竹北市",
    "lat": 24.8218471,
    "lng": 121.0117916,
    "geocodeStatus": "success",
    "geocodeError": null
  },
  {
    "name": "大樹竹東朝陽",
    "address": "新竹縣竹東鎮朝陽路1號",
    "type": "greattree",
    "direction": "北部",
    "county": "新竹縣",
    "district": "竹東鎮",
    "lat": 24.7420741,
    "lng": 121.0852497,
    "geocodeStatus": "success",
    "geocodeError": null
  },
  {
    "name": "大樹竹東東林",
    "address": "新竹縣竹東鎮新竹縣東林路80號",
    "type": "greattree",
    "direction": "北部",
    "county": "新竹縣",
    "district": "竹東鎮",
    "lat": 24.7368774,
    "lng": 121.0913451,
    "geocodeStatus": "success",
    "geocodeError": null
  },
  {
    "name": "大樹湖口成長",
    "address": "新竹縣湖口鄉中山路二段127號",
    "type": "greattree",
    "direction": "北部",
    "county": "新竹縣",
    "district": "湖口鄉",
    "lat": 24.9034692,
    "lng": 121.0444777,
    "geocodeStatus": "success",
    "geocodeError": null
  },
  {
    "name": "大樹新埔中正",
    "address": "新竹縣新埔鎮中正路520號",
    "type": "greattree",
    "direction": "北部",
    "county": "新竹縣",
    "district": "新埔鎮",
    "lat": 24.8281267,
    "lng": 121.0762241,
    "geocodeStatus": "success",
    "geocodeError": null
  },
  {
    "name": "大樹新豐中興",
    "address": "新竹縣新豐鄉中興路210號",
    "type": "greattree",
    "direction": "北部",
    "county": "新竹縣",
    "district": "新豐鄉",
    "lat": 24.875702,
    "lng": 120.9947781,
    "geocodeStatus": "success",
    "geocodeError": null
  },
  {
    "name": "大樹關西中山",
    "address": "新竹縣關西鎮中山路68號",
    "type": "greattree",
    "direction": "北部",
    "county": "新竹縣",
    "district": "關西鎮",
    "lat": 24.7915655,
    "lng": 121.1763408,
    "geocodeStatus": "success",
    "geocodeError": null
  },
  {
    "name": "大樹金門水頭",
    "address": "金門縣金城鎮金門縣金城鎮西海路一段1號",
    "type": "greattree",
    "direction": "外島",
    "county": "金門縣",
    "district": "金城鎮",
    "lat": 24.4155921,
    "lng": 118.2863867,
    "geocodeStatus": "success",
    "geocodeError": null
  },
  {
    "name": "大樹金門伯玉",
    "address": "金門縣金寧鄉伯玉路一段234-1號",
    "type": "greattree",
    "direction": "外島",
    "county": "金門縣",
    "district": "金寧鄉",
    "lat": 24.4379543,
    "lng": 118.3287235,
    "geocodeStatus": "success",
    "geocodeError": null
  },
  {
    "name": "大樹台東更生",
    "address": "台東縣台東市更生路318號",
    "type": "greattree",
    "direction": "東部",
    "county": "台東縣",
    "district": "台東市",
    "lat": 22.7608294,
    "lng": 121.1450874,
    "geocodeStatus": "success",
    "geocodeError": null
  },
  {
    "name": "大樹花蓮建國",
    "address": "花蓮縣吉安鄉建國路一段137-1號",
    "type": "greattree",
    "direction": "東部",
    "county": "花蓮縣",
    "district": "吉安鄉",
    "lat": 23.9857511,
    "lng": 121.5913911,
    "geocodeStatus": "success",
    "geocodeError": null
  },
  {
    "name": "大樹花蓮中山",
    "address": "花蓮縣花蓮市中山路192號",
    "type": "greattree",
    "direction": "東部",
    "county": "花蓮縣",
    "district": "花蓮市",
    "lat": 23.9785836,
    "lng": 121.6082663,
    "geocodeStatus": "success",
    "geocodeError": null
  },
  {
    "name": "大樹花蓮中正",
    "address": "花蓮縣花蓮市中正路123號",
    "type": "greattree",
    "direction": "東部",
    "county": "花蓮縣",
    "district": "花蓮市",
    "lat": 23.9708719,
    "lng": 121.5972059,
    "geocodeStatus": "success",
    "geocodeError": null
  },
  {
    "name": "大樹台南河樂",
    "address": "台南市中西區金華路3段259號",
    "type": "greattree",
    "direction": "南部",
    "county": "台南市",
    "district": "中西區",
    "lat": 22.9957305,
    "lng": 120.1936946,
    "geocodeStatus": "success",
    "geocodeError": null
  },
  {
    "name": "大樹仁德中正",
    "address": "台南市仁德區中正路二段1152號",
    "type": "greattree",
    "direction": "南部",
    "county": "台南市",
    "district": "仁德區",
    "lat": 22.9706149,
    "lng": 120.2519666,
    "geocodeStatus": "success",
    "geocodeError": null
  },
  {
    "name": "大樹台南六甲",
    "address": "台南市六甲區中正路535號",
    "type": "greattree",
    "direction": "南部",
    "county": "台南市",
    "district": "六甲區",
    "lat": 23.2312598,
    "lng": 120.351442,
    "geocodeStatus": "success",
    "geocodeError": null
  },
  {
    "name": "大樹台南公園",
    "address": "台南市北區公園路902號 ",
    "type": "greattree",
    "direction": "南部",
    "county": "台南市",
    "district": "北區",
    "lat": 23.0145674,
    "lng": 120.2131476,
    "geocodeStatus": "success",
    "geocodeError": null
  },
  {
    "name": "大樹台南文賢",
    "address": "台南市北區文賢路760號",
    "type": "greattree",
    "direction": "南部",
    "county": "台南市",
    "district": "北區",
    "lat": 23.0112969,
    "lng": 120.1940714,
    "geocodeStatus": "success",
    "geocodeError": null
  },
  {
    "name": "大樹西門",
    "address": "台南市北區西門路四段237號",
    "type": "greattree",
    "direction": "南部",
    "county": "台南市",
    "district": "北區",
    "lat": 23.0113532,
    "lng": 120.2083962,
    "geocodeStatus": "success",
    "geocodeError": null
  },
  {
    "name": "大樹永康大灣",
    "address": "台南市永康區大灣路555號",
    "type": "greattree",
    "direction": "南部",
    "county": "台南市",
    "district": "永康區",
    "lat": 23.0007293,
    "lng": 120.2627282,
    "geocodeStatus": "success",
    "geocodeError": null
  },
  {
    "name": "大樹永康中山",
    "address": "台南市永康區中山南路816號",
    "type": "greattree",
    "direction": "南部",
    "county": "台南市",
    "district": "永康區",
    "lat": 23.020952,
    "lng": 120.247127,
    "geocodeStatus": "success",
    "geocodeError": null
  },
  {
    "name": "大樹永康鹽行",
    "address": "台南市永康區中正北路197號",
    "type": "greattree",
    "direction": "南部",
    "county": "台南市",
    "district": "永康區",
    "lat": 23.0418289,
    "lng": 120.2438046,
    "geocodeStatus": "success",
    "geocodeError": null
  },
  {
    "name": "大樹永康大橋",
    "address": "台南市永康區中華路736號",
    "type": "greattree",
    "direction": "南部",
    "county": "台南市",
    "district": "永康區",
    "lat": 23.0167033,
    "lng": 120.2287049,
    "geocodeStatus": "success",
    "geocodeError": null
  },
  {
    "name": "大樹永康永大",
    "address": "台南市永康區永大路三段299號",
    "type": "greattree",
    "direction": "南部",
    "county": "台南市",
    "district": "永康區",
    "lat": 23.0344239,
    "lng": 120.2592854,
    "geocodeStatus": "success",
    "geocodeError": null
  },
  {
    "name": "大樹白河中山",
    "address": "台南市白河區中山路153號",
    "type": "greattree",
    "direction": "南部",
    "county": "台南市",
    "district": "白河區",
    "lat": 23.3526309,
    "lng": 120.4170452,
    "geocodeStatus": "success",
    "geocodeError": null
  },
  {
    "name": "大樹安平華平",
    "address": "台南市安平區華平路498號",
    "type": "greattree",
    "direction": "南部",
    "county": "台南市",
    "district": "安平區",
    "lat": 22.9928293,
    "lng": 120.175382,
    "geocodeStatus": "success",
    "geocodeError": null
  },
  {
    "name": "大樹安定港口",
    "address": "台南市安定區港口233-11號",
    "type": "greattree",
    "direction": "南部",
    "county": "台南市",
    "district": "安定區",
    "lat": 23.0905686,
    "lng": 120.2343696,
    "geocodeStatus": "success",
    "geocodeError": null
  },
  {
    "name": "大樹安南北安",
    "address": "台南市安南區北安路三段158號",
    "type": "greattree",
    "direction": "南部",
    "county": "台南市",
    "district": "安南區",
    "lat": 23.0425138,
    "lng": 120.2035769,
    "geocodeStatus": "success",
    "geocodeError": null
  },
  {
    "name": "大樹安南安和",
    "address": "台南市安南區安和路四段557號",
    "type": "greattree",
    "direction": "南部",
    "county": "台南市",
    "district": "安南區",
    "lat": 23.0619062,
    "lng": 120.2185155,
    "geocodeStatus": "success",
    "geocodeError": null
  },
  {
    "name": "大樹安南海佃",
    "address": "台南市安南區海佃路三段258號",
    "type": "greattree",
    "direction": "南部",
    "county": "台南市",
    "district": "安南區",
    "lat": 23.0521925,
    "lng": 120.1797942,
    "geocodeStatus": "success",
    "geocodeError": null
  },
  {
    "name": "大樹佳里延平",
    "address": "台南市佳里區延平路237號",
    "type": "greattree",
    "direction": "南部",
    "county": "台南市",
    "district": "佳里區",
    "lat": 23.1598691,
    "lng": 120.1783196,
    "geocodeStatus": "success",
    "geocodeError": null
  },
  {
    "name": "大樹台南東環",
    "address": "台南市東區大同路一段49號",
    "type": "greattree",
    "direction": "南部",
    "county": "台南市",
    "district": "東區",
    "lat": 22.9879332,
    "lng": 120.2115321,
    "geocodeStatus": "success",
    "geocodeError": null
  },
  {
    "name": "大樹台南大同",
    "address": "台南市東區大同路二段227號",
    "type": "greattree",
    "direction": "南部",
    "county": "台南市",
    "district": "東區",
    "lat": 22.9756613,
    "lng": 120.21424,
    "geocodeStatus": "success",
    "geocodeError": null
  },
  {
    "name": "大樹台南中華",
    "address": "台南市東區中華東路三段181號",
    "type": "greattree",
    "direction": "南部",
    "county": "台南市",
    "district": "東區",
    "lat": 22.9767706,
    "lng": 120.2257558,
    "geocodeStatus": "success",
    "geocodeError": null
  },
  {
    "name": "大樹台南自由",
    "address": "台南市東區自由路三段382號",
    "type": "greattree",
    "direction": "南部",
    "county": "台南市",
    "district": "東區",
    "lat": 22.9826143,
    "lng": 120.2373158,
    "geocodeStatus": "success",
    "geocodeError": null
  },
  {
    "name": "大樹台南東寧",
    "address": "台南市東區東寧路436號",
    "type": "greattree",
    "direction": "南部",
    "county": "台南市",
    "district": "東區",
    "lat": 22.9894965,
    "lng": 120.2290958,
    "geocodeStatus": "success",
    "geocodeError": null
  },
  {
    "name": "大樹台南崇道",
    "address": "台南市東區崇道路63號",
    "type": "greattree",
    "direction": "南部",
    "county": "台南市",
    "district": "東區",
    "lat": 22.9722624,
    "lng": 120.227239,
    "geocodeStatus": "success",
    "geocodeError": null
  },
  {
    "name": "大樹台南崇學",
    "address": "台南市東區崇學路146號",
    "type": "greattree",
    "direction": "南部",
    "county": "台南市",
    "district": "東區",
    "lat": 22.9811,
    "lng": 120.224778,
    "geocodeStatus": "success",
    "geocodeError": null
  },
  {
    "name": "大樹台南金華",
    "address": "台南市南區金華路二段129號",
    "type": "greattree",
    "direction": "南部",
    "county": "台南市",
    "district": "南區",
    "lat": 22.9803675,
    "lng": 120.1912998,
    "geocodeStatus": "success",
    "geocodeError": null
  },
  {
    "name": "大樹柳營中山",
    "address": "台南市柳營區中山西路一段202號",
    "type": "greattree",
    "direction": "南部",
    "county": "台南市",
    "district": "柳營區",
    "lat": 23.2792166,
    "lng": 120.3205728,
    "geocodeStatus": "success",
    "geocodeError": null
  },
  {
    "name": "大樹麻豆中山",
    "address": "台南市麻豆區中山路48號",
    "type": "greattree",
    "direction": "南部",
    "county": "台南市",
    "district": "麻豆區",
    "lat": 23.1839082,
    "lng": 120.246853,
    "geocodeStatus": "success",
    "geocodeError": null
  },
  {
    "name": "大樹善化民權",
    "address": "台南市善化區民權路54號",
    "type": "greattree",
    "direction": "南部",
    "county": "台南市",
    "district": "善化區",
    "lat": 23.1321868,
    "lng": 120.3033704,
    "geocodeStatus": "success",
    "geocodeError": null
  },
  {
    "name": "大樹善化光復",
    "address": "台南市善化區光復路53號",
    "type": "greattree",
    "direction": "南部",
    "county": "台南市",
    "district": "善化區",
    "lat": 23.1285318,
    "lng": 120.2929075,
    "geocodeStatus": "success",
    "geocodeError": null
  },
  {
    "name": "大樹新化中正",
    "address": "台南市新化區中正路531號",
    "type": "greattree",
    "direction": "南部",
    "county": "台南市",
    "district": "新化區",
    "lat": 23.037694,
    "lng": 120.307091,
    "geocodeStatus": "success",
    "geocodeError": null
  },
  {
    "name": "大樹新市中正",
    "address": "台南市新市區中正路49號",
    "type": "greattree",
    "direction": "南部",
    "county": "台南市",
    "district": "新市區",
    "lat": 23.0721514,
    "lng": 120.2916318,
    "geocodeStatus": "success",
    "geocodeError": null
  },
  {
    "name": "大樹新市民生",
    "address": "台南市新市區民生路82號",
    "type": "greattree",
    "direction": "南部",
    "county": "台南市",
    "district": "新市區",
    "lat": 23.0796769,
    "lng": 120.2891663,
    "geocodeStatus": "success",
    "geocodeError": null
  },
  {
    "name": "大樹新營民治",
    "address": "台南市新營區民治路242號",
    "type": "greattree",
    "direction": "南部",
    "county": "台南市",
    "district": "新營區",
    "lat": 23.3077704,
    "lng": 120.3040983,
    "geocodeStatus": "success",
    "geocodeError": null
  },
  {
    "name": "大樹新營民權",
    "address": "台南市新營區民權路74號",
    "type": "greattree",
    "direction": "南部",
    "county": "台南市",
    "district": "新營區",
    "lat": 23.3063068,
    "lng": 120.3127611,
    "geocodeStatus": "success",
    "geocodeError": null
  },
  {
    "name": "大樹學甲中正",
    "address": "台南市學甲區中正路135號",
    "type": "greattree",
    "direction": "南部",
    "county": "台南市",
    "district": "學甲區",
    "lat": 23.2302379,
    "lng": 120.1793566,
    "geocodeStatus": "success",
    "geocodeError": null
  },
  {
    "name": "大樹歸仁中山",
    "address": "台南市歸仁區中山路三段12號",
    "type": "greattree",
    "direction": "南部",
    "county": "台南市",
    "district": "歸仁區",
    "lat": 22.9676868,
    "lng": 120.2875011,
    "geocodeStatus": "success",
    "geocodeError": null
  },
  {
    "name": "大樹關廟中央",
    "address": "台南市關廟區中央路263號",
    "type": "greattree",
    "direction": "南部",
    "county": "台南市",
    "district": "關廟區",
    "lat": 22.9610918,
    "lng": 120.3272272,
    "geocodeStatus": "success",
    "geocodeError": null
  },
  {
    "name": "大樹鹽水朝琴",
    "address": "台南市鹽水區朝琴路126-3號",
    "type": "greattree",
    "direction": "南部",
    "county": "台南市",
    "district": "鹽水區",
    "lat": 23.3222723,
    "lng": 120.2709893,
    "geocodeStatus": "success",
    "geocodeError": null
  },
  {
    "name": "大樹屏東九如",
    "address": "屏東縣九如鄉九如路二段173-1號",
    "type": "greattree",
    "direction": "南部",
    "county": "屏東縣",
    "district": "九如鄉",
    "lat": 22.733156,
    "lng": 120.4887509,
    "geocodeStatus": "success",
    "geocodeError": null
  },
  {
    "name": "大樹里港",
    "address": "屏東縣里港鄉永春路37號",
    "type": "greattree",
    "direction": "南部",
    "county": "屏東縣",
    "district": "里港鄉",
    "lat": 22.777121,
    "lng": 120.4955119,
    "geocodeStatus": "success",
    "geocodeError": null
  },
  {
    "name": "大樹東港",
    "address": "屏東縣東港鎮中正路257號",
    "type": "greattree",
    "direction": "南部",
    "county": "屏東縣",
    "district": "東港鎮",
    "lat": 22.4701935,
    "lng": 120.4522949,
    "geocodeStatus": "success",
    "geocodeError": null
  },
  {
    "name": "大樹枋寮中山",
    "address": "屏東縣枋寮鄉中山路157-2號",
    "type": "greattree",
    "direction": "南部",
    "county": "屏東縣",
    "district": "枋寮鄉",
    "lat": 22.3647652,
    "lng": 120.5959873,
    "geocodeStatus": "success",
    "geocodeError": null
  },
  {
    "name": "大樹林邊中山",
    "address": "屏東縣林邊鄉中山路228號",
    "type": "greattree",
    "direction": "南部",
    "county": "屏東縣",
    "district": "林邊鄉",
    "lat": 22.4355489,
    "lng": 120.5141889,
    "geocodeStatus": "success",
    "geocodeError": null
  },
  {
    "name": "大樹屏東內埔",
    "address": "屏東縣屏東市內埔鄉南寧路23號",
    "type": "greattree",
    "direction": "南部",
    "county": "屏東縣",
    "district": "屏東市",
    "lat": 22.6173746,
    "lng": 120.5653934,
    "geocodeStatus": "success",
    "geocodeError": null
  },
  {
    "name": "大樹屏東民生",
    "address": "屏東縣屏東市民生路57之21號",
    "type": "greattree",
    "direction": "南部",
    "county": "屏東縣",
    "district": "屏東市",
    "lat": 22.6639676,
    "lng": 120.5037512,
    "geocodeStatus": "success",
    "geocodeError": null
  },
  {
    "name": "大樹屏東自由",
    "address": "屏東縣屏東市自由路631號",
    "type": "greattree",
    "direction": "南部",
    "county": "屏東縣",
    "district": "屏東市",
    "lat": 22.6829304,
    "lng": 120.4823851,
    "geocodeStatus": "success",
    "geocodeError": null
  },
  {
    "name": "大樹屏東和平",
    "address": "屏東縣屏東市和平路35號",
    "type": "greattree",
    "direction": "南部",
    "county": "屏東縣",
    "district": "屏東市",
    "lat": 22.6665046,
    "lng": 120.4784883,
    "geocodeStatus": "success",
    "geocodeError": null
  },
  {
    "name": "大樹屏東廣東",
    "address": "屏東縣屏東市廣東路682之2號",
    "type": "greattree",
    "direction": "南部",
    "county": "屏東縣",
    "district": "屏東市",
    "lat": 22.685281,
    "lng": 120.4965937,
    "geocodeStatus": "success",
    "geocodeError": null
  },
  {
    "name": "大樹恆春西門",
    "address": "屏東縣恆春鎮西門路108號",
    "type": "greattree",
    "direction": "南部",
    "county": "屏東縣",
    "district": "恆春鎮",
    "lat": 22.0079039,
    "lng": 120.7436046,
    "geocodeStatus": "success",
    "geocodeError": null
  },
  {
    "name": "大樹高樹興中",
    "address": "屏東縣高樹鄉南興路135號",
    "type": "greattree",
    "direction": "南部",
    "county": "屏東縣",
    "district": "高樹鄉",
    "lat": 22.8240711,
    "lng": 120.6013343,
    "geocodeStatus": "success",
    "geocodeError": null
  },
  {
    "name": "大樹萬丹大昌",
    "address": "屏東縣萬丹鄉大昌路510號",
    "type": "greattree",
    "direction": "南部",
    "county": "屏東縣",
    "district": "萬丹鄉",
    "lat": 22.6159677,
    "lng": 120.4695648,
    "geocodeStatus": "success",
    "geocodeError": null
  },
  {
    "name": "大樹萬丹萬安",
    "address": "屏東縣萬丹鄉萬丹路一段139號",
    "type": "greattree",
    "direction": "南部",
    "county": "屏東縣",
    "district": "萬丹鄉",
    "lat": 22.5870707,
    "lng": 120.4895963,
    "geocodeStatus": "success",
    "geocodeError": null
  },
  {
    "name": "大樹萬巒中正",
    "address": "屏東縣萬巒鄉中正路22-10號",
    "type": "greattree",
    "direction": "南部",
    "county": "屏東縣",
    "district": "萬巒鄉",
    "lat": 22.5720779,
    "lng": 120.5679633,
    "geocodeStatus": "success",
    "geocodeError": null
  },
  {
    "name": "大樹潮州介壽",
    "address": "屏東縣潮州鎮介壽路1-1號",
    "type": "greattree",
    "direction": "南部",
    "county": "屏東縣",
    "district": "潮州鎮",
    "lat": 22.5460418,
    "lng": 120.53742,
    "geocodeStatus": "success",
    "geocodeError": null
  },
  {
    "name": "大樹潮州太平",
    "address": "屏東縣潮州鎮太平路56號",
    "type": "greattree",
    "direction": "南部",
    "county": "屏東縣",
    "district": "潮州鎮",
    "lat": 22.5531135,
    "lng": 120.5389783,
    "geocodeStatus": "success",
    "geocodeError": null
  },
  {
    "name": "大樹麟洛中山",
    "address": "屏東縣麟洛鄉中山路258號",
    "type": "greattree",
    "direction": "南部",
    "county": "屏東縣",
    "district": "麟洛鄉",
    "lat": 22.6526629,
    "lng": 120.5244316,
    "geocodeStatus": "success",
    "geocodeError": null
  },
  {
    "name": "大樹鹽埔維新",
    "address": "屏東縣鹽埔鄉維新路60-3號",
    "type": "greattree",
    "direction": "南部",
    "county": "屏東縣",
    "district": "鹽埔鄉",
    "lat": 22.7389068,
    "lng": 120.5554324,
    "geocodeStatus": "success",
    "geocodeError": null
  },
  {
    "name": "大樹三民大昌",
    "address": "高雄市三民區大昌二路397號",
    "type": "greattree",
    "direction": "南部",
    "county": "高雄市",
    "district": "三民區",
    "lat": 22.6490784,
    "lng": 120.3317254,
    "geocodeStatus": "success",
    "geocodeError": null
  },
  {
    "name": "大樹三民天祥",
    "address": "高雄市三民區天祥一路167號",
    "type": "greattree",
    "direction": "南部",
    "county": "高雄市",
    "district": "三民區",
    "lat": 22.6675276,
    "lng": 120.3190231,
    "geocodeStatus": "success",
    "geocodeError": null
  },
  {
    "name": "大樹三民正興",
    "address": "高雄市三民區正興路171號",
    "type": "greattree",
    "direction": "南部",
    "county": "高雄市",
    "district": "三民區",
    "lat": 22.647023,
    "lng": 120.319734,
    "geocodeStatus": "success",
    "geocodeError": null
  },
  {
    "name": "大樹三民自由",
    "address": "高雄市三民區自由一路78號",
    "type": "greattree",
    "direction": "南部",
    "county": "高雄市",
    "district": "三民區",
    "lat": 22.6441754,
    "lng": 120.3089224,
    "geocodeStatus": "success",
    "geocodeError": null
  },
  {
    "name": "大樹三民明哲",
    "address": "高雄市三民區明哲路6號",
    "type": "greattree",
    "direction": "南部",
    "county": "高雄市",
    "district": "三民區",
    "lat": 22.6613043,
    "lng": 120.3139941,
    "geocodeStatus": "success",
    "geocodeError": null
  },
  {
    "name": "大樹三民建工",
    "address": "高雄市三民區建工路432號",
    "type": "greattree",
    "direction": "南部",
    "county": "高雄市",
    "district": "三民區",
    "lat": 22.6518646,
    "lng": 120.3279118,
    "geocodeStatus": "success",
    "geocodeError": null
  },
  {
    "name": "大樹三民陽明",
    "address": "高雄市三民區陽明路180號",
    "type": "greattree",
    "direction": "南部",
    "county": "高雄市",
    "district": "三民區",
    "lat": 22.6416261,
    "lng": 120.3420321,
    "geocodeStatus": "success",
    "geocodeError": null
  },
  {
    "name": "大樹三民鼎山",
    "address": "高雄市三民區鼎山街293號",
    "type": "greattree",
    "direction": "南部",
    "county": "高雄市",
    "district": "三民區",
    "lat": 22.6583348,
    "lng": 120.3221003,
    "geocodeStatus": "success",
    "geocodeError": null
  },
  {
    "name": "大樹三民灣中",
    "address": "高雄市三民區灣中街332號",
    "type": "greattree",
    "direction": "南部",
    "county": "高雄市",
    "district": "三民區",
    "lat": 22.6499109,
    "lng": 120.317815,
    "geocodeStatus": "success",
    "geocodeError": null
  },
  {
    "name": "大樹大社中山",
    "address": "高雄市大社區中山路308號",
    "type": "greattree",
    "direction": "南部",
    "county": "高雄市",
    "district": "大社區",
    "lat": 22.7314098,
    "lng": 120.3502617,
    "geocodeStatus": "success",
    "geocodeError": null
  },
  {
    "name": "大樹大寮鳳林",
    "address": "高雄市大寮區鳳林三路306號",
    "type": "greattree",
    "direction": "南部",
    "county": "高雄市",
    "district": "大寮區",
    "lat": 22.6012839,
    "lng": 120.3982342,
    "geocodeStatus": "success",
    "geocodeError": null
  },
  {
    "name": "大樹高雄大寮鳳屏",
    "address": "高雄市大寮區鳳屏一路457號",
    "type": "greattree",
    "direction": "南部",
    "county": "高雄市",
    "district": "大寮區",
    "lat": 22.6382806,
    "lng": 120.3958099,
    "geocodeStatus": "success",
    "geocodeError": null
  },
  {
    "name": "大樹久堂",
    "address": "高雄市大樹區久堂路136號",
    "type": "greattree",
    "direction": "南部",
    "county": "高雄市",
    "district": "大樹區",
    "lat": 22.6580524,
    "lng": 120.41782,
    "geocodeStatus": "success",
    "geocodeError": null
  },
  {
    "name": "大樹小港中安",
    "address": "高雄市小港區中安路857號",
    "type": "greattree",
    "direction": "南部",
    "county": "高雄市",
    "district": "小港區",
    "lat": 22.5849462,
    "lng": 120.3663791,
    "geocodeStatus": "success",
    "geocodeError": null
  },
  {
    "name": "大樹小港孔鳳",
    "address": "高雄市小港區孔鳳路521號",
    "type": "greattree",
    "direction": "南部",
    "county": "高雄市",
    "district": "小港區",
    "lat": 22.5829081,
    "lng": 120.3585408,
    "geocodeStatus": "success",
    "geocodeError": null
  },
  {
    "name": "大樹小港康莊",
    "address": "高雄市小港區康莊路75號",
    "type": "greattree",
    "direction": "南部",
    "county": "高雄市",
    "district": "小港區",
    "lat": 22.5686116,
    "lng": 120.3558462,
    "geocodeStatus": "success",
    "geocodeError": null
  },
  {
    "name": "大樹仁武八德",
    "address": "高雄市仁武區八德南路200號",
    "type": "greattree",
    "direction": "南部",
    "county": "高雄市",
    "district": "仁武區",
    "lat": 22.6832106,
    "lng": 120.3395286,
    "geocodeStatus": "success",
    "geocodeError": null
  },
  {
    "name": "大樹仁武仁忠",
    "address": "高雄市仁武區仁忠路172號",
    "type": "greattree",
    "direction": "南部",
    "county": "高雄市",
    "district": "仁武區",
    "lat": 22.679638,
    "lng": 120.3547746,
    "geocodeStatus": "success",
    "geocodeError": null
  },
  {
    "name": "大樹仁武中華",
    "address": "高雄市仁武區仁武區中華路353號",
    "type": "greattree",
    "direction": "南部",
    "county": "高雄市",
    "district": "仁武區",
    "lat": 22.701018,
    "lng": 120.3536845,
    "geocodeStatus": "success",
    "geocodeError": null
  },
  {
    "name": "大樹仁武仁雄",
    "address": "高雄市仁武區仁雄路80-9號",
    "type": "greattree",
    "direction": "南部",
    "county": "高雄市",
    "district": "仁武區",
    "lat": 22.6778397,
    "lng": 120.3465702,
    "geocodeStatus": "success",
    "geocodeError": null
  },
  {
    "name": "大樹左營大路",
    "address": "高雄市左營區左營大路55-2號",
    "type": "greattree",
    "direction": "南部",
    "county": "高雄市",
    "district": "左營區",
    "lat": 22.6814609,
    "lng": 120.2877799,
    "geocodeStatus": "success",
    "geocodeError": null
  },
  {
    "name": "大樹左營自由",
    "address": "高雄市左營區自由二路350號",
    "type": "greattree",
    "direction": "南部",
    "county": "高雄市",
    "district": "左營區",
    "lat": 22.6661569,
    "lng": 120.309065,
    "geocodeStatus": "success",
    "geocodeError": null
  },
  {
    "name": "大樹左營福山",
    "address": "高雄市左營區自由四路200號",
    "type": "greattree",
    "direction": "南部",
    "county": "高雄市",
    "district": "左營區",
    "lat": 22.6829154,
    "lng": 120.3148129,
    "geocodeStatus": "success",
    "geocodeError": null
  },
  {
    "name": "大樹左營孟子",
    "address": "高雄市左營區孟子路228號",
    "type": "greattree",
    "direction": "南部",
    "county": "高雄市",
    "district": "左營區",
    "lat": 22.6742849,
    "lng": 120.3115252,
    "geocodeStatus": "success",
    "geocodeError": null
  },
  {
    "name": "大樹左營高鐵",
    "address": "高雄市左營區華夏路1322號",
    "type": "greattree",
    "direction": "南部",
    "county": "高雄市",
    "district": "左營區",
    "lat": 22.6858497,
    "lng": 120.3119452,
    "geocodeStatus": "success",
    "geocodeError": null
  },
  {
    "name": "大樹左營華夏",
    "address": "高雄市左營區華夏路325號",
    "type": "greattree",
    "direction": "南部",
    "county": "高雄市",
    "district": "左營區",
    "lat": 22.6715898,
    "lng": 120.2972065,
    "geocodeStatus": "success",
    "geocodeError": null
  },
  {
    "name": "大樹岡山大德",
    "address": "高雄市岡山區大德一路98號",
    "type": "greattree",
    "direction": "南部",
    "county": "高雄市",
    "district": "岡山區",
    "lat": 22.7969142,
    "lng": 120.3026018,
    "geocodeStatus": "success",
    "geocodeError": null
  },
  {
    "name": "大樹岡山",
    "address": "高雄市岡山區岡山路136號",
    "type": "greattree",
    "direction": "南部",
    "county": "高雄市",
    "district": "岡山區",
    "lat": 22.7891071,
    "lng": 120.2969044,
    "geocodeStatus": "success",
    "geocodeError": null
  },
  {
    "name": "大樹岡山維仁",
    "address": "高雄市岡山區維仁路197號",
    "type": "greattree",
    "direction": "南部",
    "county": "高雄市",
    "district": "岡山區",
    "lat": 22.7960036,
    "lng": 120.2930363,
    "geocodeStatus": "success",
    "geocodeError": null
  },
  {
    "name": "大樹林園",
    "address": "高雄市林園區仁愛路13號",
    "type": "greattree",
    "direction": "南部",
    "county": "高雄市",
    "district": "林園區",
    "lat": 22.5042131,
    "lng": 120.3927459,
    "geocodeStatus": "success",
    "geocodeError": null
  },
  {
    "name": "大樹前鎮中華",
    "address": "高雄市前鎮區中華五路1009號",
    "type": "greattree",
    "direction": "南部",
    "county": "高雄市",
    "district": "前鎮區",
    "lat": 22.6034339,
    "lng": 120.3054978,
    "geocodeStatus": "success",
    "geocodeError": null
  },
  {
    "name": "大樹前鎮瑞福",
    "address": "高雄市前鎮區瑞隆路170號",
    "type": "greattree",
    "direction": "南部",
    "county": "高雄市",
    "district": "前鎮區",
    "lat": 22.6059351,
    "lng": 120.3358242,
    "geocodeStatus": "success",
    "geocodeError": null
  },
  {
    "name": "大樹前鎮瑞隆",
    "address": "高雄市前鎮區瑞隆路472號",
    "type": "greattree",
    "direction": "南部",
    "county": "高雄市",
    "district": "前鎮區",
    "lat": 22.605521,
    "lng": 120.329318,
    "geocodeStatus": "success",
    "geocodeError": null
  },
  {
    "name": "大樹苓雅三多",
    "address": "高雄市苓雅區三多二路292號",
    "type": "greattree",
    "direction": "南部",
    "county": "高雄市",
    "district": "苓雅區",
    "lat": 22.6183751,
    "lng": 120.3173052,
    "geocodeStatus": "success",
    "geocodeError": null
  },
  {
    "name": "大樹苓雅中華",
    "address": "高雄市苓雅區中華四路153號",
    "type": "greattree",
    "direction": "南部",
    "county": "高雄市",
    "district": "苓雅區",
    "lat": 22.6177675,
    "lng": 120.3000782,
    "geocodeStatus": "success",
    "geocodeError": null
  },
  {
    "name": "大樹苓雅文橫",
    "address": "高雄市苓雅區文橫二路111號",
    "type": "greattree",
    "direction": "南部",
    "county": "高雄市",
    "district": "苓雅區",
    "lat": 22.6197812,
    "lng": 120.3047151,
    "geocodeStatus": "success",
    "geocodeError": null
  },
  {
    "name": "大樹苓雅武廟",
    "address": "高雄市苓雅區武廟路45號",
    "type": "greattree",
    "direction": "南部",
    "county": "高雄市",
    "district": "苓雅區",
    "lat": 22.6300413,
    "lng": 120.3313213,
    "geocodeStatus": "success",
    "geocodeError": null
  },
  {
    "name": "大樹苓雅建國",
    "address": "高雄市苓雅區建國一路252號",
    "type": "greattree",
    "direction": "南部",
    "county": "高雄市",
    "district": "苓雅區",
    "lat": 22.6330643,
    "lng": 120.3269391,
    "geocodeStatus": "success",
    "geocodeError": null
  },
  {
    "name": "大樹茄萣白紗",
    "address": "高雄市茄萣區白砂路251號",
    "type": "greattree",
    "direction": "南部",
    "county": "高雄市",
    "district": "茄萣區",
    "lat": 22.91333,
    "lng": 120.185055,
    "geocodeStatus": "success",
    "geocodeError": null
  },
  {
    "name": "大樹梓官",
    "address": "高雄市梓官區梓官路246號",
    "type": "greattree",
    "direction": "南部",
    "county": "高雄市",
    "district": "梓官區",
    "lat": 22.7603214,
    "lng": 120.2671466,
    "geocodeStatus": "success",
    "geocodeError": null
  },
  {
    "name": "大樹湖內保生",
    "address": "高雄市湖內區保生路340號",
    "type": "greattree",
    "direction": "南部",
    "county": "高雄市",
    "district": "湖內區",
    "lat": 22.9073354,
    "lng": 120.2194617,
    "geocodeStatus": "success",
    "geocodeError": null
  },
  {
    "name": "大樹新興復興",
    "address": "高雄市新興區復興一路76號",
    "type": "greattree",
    "direction": "南部",
    "county": "高雄市",
    "district": "新興區",
    "lat": 22.6331011,
    "lng": 120.308496,
    "geocodeStatus": "success",
    "geocodeError": null
  },
  {
    "name": "大樹楠梓軍校",
    "address": "高雄市楠梓區軍校路908號",
    "type": "greattree",
    "direction": "南部",
    "county": "高雄市",
    "district": "楠梓區",
    "lat": 22.7124925,
    "lng": 120.2920581,
    "geocodeStatus": "success",
    "geocodeError": null
  },
  {
    "name": "大樹楠梓新路",
    "address": "高雄市楠梓區楠梓新路135號",
    "type": "greattree",
    "direction": "南部",
    "county": "高雄市",
    "district": "楠梓區",
    "lat": 22.7260591,
    "lng": 120.3244527,
    "geocodeStatus": "success",
    "geocodeError": null
  },
  {
    "name": "大樹楠梓德中",
    "address": "高雄市楠梓區藍田路1218號",
    "type": "greattree",
    "direction": "南部",
    "county": "高雄市",
    "district": "楠梓區",
    "lat": 22.7251867,
    "lng": 120.2759872,
    "geocodeStatus": "success",
    "geocodeError": null
  },
  {
    "name": "大樹楠梓藍田",
    "address": "高雄市楠梓區藍田路1號",
    "type": "greattree",
    "direction": "南部",
    "county": "高雄市",
    "district": "楠梓區",
    "lat": 22.7264302,
    "lng": 120.2953902,
    "geocodeStatus": "success",
    "geocodeError": null
  },
  {
    "name": "大樹路竹國昌",
    "address": "高雄市路竹區國昌路51號",
    "type": "greattree",
    "direction": "南部",
    "county": "高雄市",
    "district": "路竹區",
    "lat": 22.8541862,
    "lng": 120.2598623,
    "geocodeStatus": "success",
    "geocodeError": null
  },
  {
    "name": "大樹鼓山九如",
    "address": "高雄市鼓山區九如四路1526號",
    "type": "greattree",
    "direction": "南部",
    "county": "高雄市",
    "district": "鼓山區",
    "lat": 22.661004,
    "lng": 120.281113,
    "geocodeStatus": "success",
    "geocodeError": null
  },
  {
    "name": "大樹鼓山青海",
    "address": "高雄市鼓山區青海路302號",
    "type": "greattree",
    "direction": "南部",
    "county": "高雄市",
    "district": "鼓山區",
    "lat": 22.6516746,
    "lng": 120.2861694,
    "geocodeStatus": "success",
    "geocodeError": null
  },
  {
    "name": "大樹華榮",
    "address": "高雄市鼓山區華榮路10號",
    "type": "greattree",
    "direction": "南部",
    "county": "高雄市",
    "district": "鼓山區",
    "lat": 22.6616182,
    "lng": 120.2972573,
    "geocodeStatus": "success",
    "geocodeError": null
  },
  {
    "name": "大樹旗山中華",
    "address": "高雄市旗山區中華路23號",
    "type": "greattree",
    "direction": "南部",
    "county": "高雄市",
    "district": "旗山區",
    "lat": 22.8803115,
    "lng": 120.4840718,
    "geocodeStatus": "success",
    "geocodeError": null
  },
  {
    "name": "大樹鳳山中山",
    "address": "高雄市鳳山區中山西路238號",
    "type": "greattree",
    "direction": "南部",
    "county": "高雄市",
    "district": "鳳山區",
    "lat": 22.6281752,
    "lng": 120.3468998,
    "geocodeStatus": "success",
    "geocodeError": null
  },
  {
    "name": "大樹鳳山甲一",
    "address": "高雄市鳳山區五甲一路292號",
    "type": "greattree",
    "direction": "南部",
    "county": "高雄市",
    "district": "鳳山區",
    "lat": 22.6170524,
    "lng": 120.3539585,
    "geocodeStatus": "success",
    "geocodeError": null
  },
  {
    "name": "大樹鳳山甲二",
    "address": "高雄市鳳山區五甲二路139號",
    "type": "greattree",
    "direction": "南部",
    "county": "高雄市",
    "district": "鳳山區",
    "lat": 22.6013968,
    "lng": 120.3407727,
    "geocodeStatus": "success",
    "geocodeError": null
  },
  {
    "name": "大樹鳳山甲三",
    "address": "高雄市鳳山區五甲三路26號",
    "type": "greattree",
    "direction": "南部",
    "county": "高雄市",
    "district": "鳳山區",
    "lat": 22.59318,
    "lng": 120.3277727,
    "geocodeStatus": "success",
    "geocodeError": null
  },
  {
    "name": "大樹鳳山青年",
    "address": "高雄市鳳山區青年路二段399號",
    "type": "greattree",
    "direction": "南部",
    "county": "高雄市",
    "district": "鳳山區",
    "lat": 22.6429502,
    "lng": 120.3511775,
    "geocodeStatus": "success",
    "geocodeError": null
  },
  {
    "name": "大樹鳳山新富",
    "address": "高雄市鳳山區新富路373號",
    "type": "greattree",
    "direction": "南部",
    "county": "高雄市",
    "district": "鳳山區",
    "lat": 22.6149755,
    "lng": 120.3476028,
    "geocodeStatus": "success",
    "geocodeError": null
  },
  {
    "name": "大樹橋頭隆豐",
    "address": "高雄市橋頭區隆豐路120號",
    "type": "greattree",
    "direction": "南部",
    "county": "高雄市",
    "district": "橋頭區",
    "lat": 22.7560691,
    "lng": 120.3054635,
    "geocodeStatus": "success",
    "geocodeError": null
  },
  {
    "name": "大樹七賢",
    "address": "高雄市鹽埕區七賢三路162號",
    "type": "greattree",
    "direction": "南部",
    "county": "高雄市",
    "district": "鹽埕區",
    "lat": 22.6270911,
    "lng": 120.2829116,
    "geocodeStatus": "success",
    "geocodeError": null
  },
  {
    "name": "大樹嘉義友愛",
    "address": "嘉義市西區友愛路270號",
    "type": "greattree",
    "direction": "南部",
    "county": "嘉義市",
    "district": "西區",
    "lat": 23.483741,
    "lng": 120.4339588,
    "geocodeStatus": "success",
    "geocodeError": null
  },
  {
    "name": "大樹嘉義民權",
    "address": "嘉義市東區民權路76號",
    "type": "greattree",
    "direction": "南部",
    "county": "嘉義市",
    "district": "東區",
    "lat": 23.4840523,
    "lng": 120.4603367,
    "geocodeStatus": "success",
    "geocodeError": null
  },
  {
    "name": "大樹嘉義吳鳳",
    "address": "嘉義市東區吳鳳南路649號",
    "type": "greattree",
    "direction": "南部",
    "county": "嘉義市",
    "district": "東區",
    "lat": 23.455125,
    "lng": 120.4594452,
    "geocodeStatus": "success",
    "geocodeError": null
  },
  {
    "name": "大樹嘉義興業",
    "address": "嘉義市東區興業東路95號",
    "type": "greattree",
    "direction": "南部",
    "county": "嘉義市",
    "district": "東區",
    "lat": 23.4692572,
    "lng": 120.4505577,
    "geocodeStatus": "success",
    "geocodeError": null
  },
  {
    "name": "大樹大林祥和",
    "address": "嘉義縣大林鎮祥和路192號",
    "type": "greattree",
    "direction": "南部",
    "county": "嘉義縣",
    "district": "大林鎮",
    "lat": 23.6044855,
    "lng": 120.4526579,
    "geocodeStatus": "success",
    "geocodeError": null
  },
  {
    "name": "大樹太保中山",
    "address": "嘉義縣太保市中山路一段299號",
    "type": "greattree",
    "direction": "南部",
    "county": "嘉義縣",
    "district": "太保市",
    "lat": 23.4982884,
    "lng": 120.3785262,
    "geocodeStatus": "success",
    "geocodeError": null
  },
  {
    "name": "大樹水上中興",
    "address": "嘉義縣水上鄉中興路266號",
    "type": "greattree",
    "direction": "南部",
    "county": "嘉義縣",
    "district": "水上鄉",
    "lat": 23.430222,
    "lng": 120.4028276,
    "geocodeStatus": "success",
    "geocodeError": null
  },
  {
    "name": "大樹布袋龍江",
    "address": "嘉義縣布袋鎮龍江路1號",
    "type": "greattree",
    "direction": "南部",
    "county": "嘉義縣",
    "district": "布袋鎮",
    "lat": 23.3776222,
    "lng": 120.1685642,
    "geocodeStatus": "success",
    "geocodeError": null
  },
  {
    "name": "大樹民雄建國",
    "address": "嘉義縣民雄鄉建國路一段117號",
    "type": "greattree",
    "direction": "南部",
    "county": "嘉義縣",
    "district": "民雄鄉",
    "lat": 23.5567494,
    "lng": 120.4332315,
    "geocodeStatus": "success",
    "geocodeError": null
  },
  {
    "name": "大樹民雄頭橋",
    "address": "嘉義縣民雄鄉建國路三段176號",
    "type": "greattree",
    "direction": "南部",
    "county": "嘉義縣",
    "district": "民雄鄉",
    "lat": 23.524699,
    "lng": 120.4394547,
    "geocodeStatus": "success",
    "geocodeError": null
  },
  {
    "name": "大樹朴子海通",
    "address": "嘉義縣朴子市海通路43-8號",
    "type": "greattree",
    "direction": "南部",
    "county": "嘉義縣",
    "district": "朴子市",
    "lat": 23.4637159,
    "lng": 120.2404092,
    "geocodeStatus": "success",
    "geocodeError": null
  },
  {
    "name": "小當家安南",
    "address": "台南市安南區宜居路220號",
    "type": "littlechef",
    "direction": "南部",
    "county": "台南市",
    "district": "安南區",
    "lat": 23.0200634,
    "lng": 120.1856567,
    "geocodeStatus": "success",
    "geocodeError": null
  },
  {
    "name": "小當家西港",
    "address": "台南市西港區新興街105-2號",
    "type": "littlechef",
    "direction": "南部",
    "county": "台南市",
    "district": "西港區",
    "lat": 23.123483,
    "lng": 120.201227,
    "geocodeStatus": "success",
    "geocodeError": null
  },
  {
    "name": "小當家佳里",
    "address": "台南市佳里區光復路90號",
    "type": "littlechef",
    "direction": "南部",
    "county": "台南市",
    "district": "佳里區",
    "lat": 23.1577766,
    "lng": 120.1751336,
    "geocodeStatus": "success",
    "geocodeError": null
  },
  {
    "name": "小當家新營",
    "address": "台南市新營區健康路80號",
    "type": "littlechef",
    "direction": "南部",
    "county": "台南市",
    "district": "新營區",
    "lat": 23.3128935,
    "lng": 120.3124975,
    "geocodeStatus": "success",
    "geocodeError": null
  },
  {
    "name": "弘安北港",
    "address": "雲林縣北港鎮華南路22號",
    "type": "hongan",
    "direction": "中部",
    "county": "雲林縣",
    "district": "北港鎮",
    "lat": 23.571829,
    "lng": 120.3002462,
    "geocodeStatus": "success",
    "geocodeError": null
  },
  {
    "name": "弘安安南",
    "address": "台南市安南區安中路一段471號",
    "type": "hongan",
    "direction": "南部",
    "county": "台南市",
    "district": "安南區",
    "lat": 23.0394226,
    "lng": 120.2013909,
    "geocodeStatus": "success",
    "geocodeError": null
  },
  {
    "name": "弘安友愛",
    "address": "嘉義市西區友愛路241號",
    "type": "hongan",
    "direction": "南部",
    "county": "嘉義市",
    "district": "西區",
    "lat": 23.4844133,
    "lng": 120.4333746,
    "geocodeStatus": "success",
    "geocodeError": null
  },
  {
    "name": "弘安興業",
    "address": "嘉義市西區興業西路311號",
    "type": "hongan",
    "direction": "南部",
    "county": "嘉義市",
    "district": "西區",
    "lat": 23.4677111,
    "lng": 120.4387518,
    "geocodeStatus": "success",
    "geocodeError": null
  },
  {
    "name": "弘安文化",
    "address": "嘉義市東區文化路275號",
    "type": "hongan",
    "direction": "南部",
    "county": "嘉義市",
    "district": "東區",
    "lat": 23.4838273,
    "lng": 120.4485789,
    "geocodeStatus": "success",
    "geocodeError": null
  },
  {
    "name": "弘安民族",
    "address": "嘉義市東區民族路165號",
    "type": "hongan",
    "direction": "南部",
    "county": "嘉義市",
    "district": "東區",
    "lat": 23.4765251,
    "lng": 120.4570263,
    "geocodeStatus": "success",
    "geocodeError": null
  },
  {
    "name": "弘安後庄",
    "address": "嘉義市東區吳鳳南路298號",
    "type": "hongan",
    "direction": "南部",
    "county": "嘉義市",
    "district": "東區",
    "lat": 23.456635,
    "lng": 120.458591,
    "geocodeStatus": "success",
    "geocodeError": null
  },
  {
    "name": "弘安麻魚寮",
    "address": "嘉義縣太保市中山路二段3-1號",
    "type": "hongan",
    "direction": "南部",
    "county": "嘉義縣",
    "district": "太保市",
    "lat": 23.4987222,
    "lng": 120.3765076,
    "geocodeStatus": "success",
    "geocodeError": null
  },
  {
    "name": "弘安市政",
    "address": "嘉義縣水上鄉市政街107號",
    "type": "hongan",
    "direction": "南部",
    "county": "嘉義縣",
    "district": "水上鄉",
    "lat": 23.4303044,
    "lng": 120.3980424,
    "geocodeStatus": "success",
    "geocodeError": null
  },
  {
    "name": "弘安水上",
    "address": "嘉義縣水上鄉寬士村崎仔頭1號附125",
    "type": "hongan",
    "direction": "南部",
    "county": "嘉義縣",
    "district": "水上鄉",
    "lat": 23.4501595,
    "lng": 120.4294194,
    "geocodeStatus": "success",
    "geocodeError": null
  },
  {
    "name": "弘安民雄",
    "address": "嘉義縣民雄鄉建國路一段45號",
    "type": "hongan",
    "direction": "南部",
    "county": "嘉義縣",
    "district": "民雄鄉",
    "lat": 23.5558102,
    "lng": 120.4335392,
    "geocodeStatus": "success",
    "geocodeError": null
  },
  {
    "name": "弘安福樂",
    "address": "嘉義縣民雄鄉福樂村埤角539號",
    "type": "hongan",
    "direction": "南部",
    "county": "嘉義縣",
    "district": "民雄鄉",
    "lat": 23.5252783,
    "lng": 120.4401325,
    "geocodeStatus": "success",
    "geocodeError": null
  },
  {
    "name": "弘安朴子",
    "address": "嘉義縣朴子市新進路31號",
    "type": "hongan",
    "direction": "南部",
    "county": "嘉義縣",
    "district": "朴子市",
    "lat": 23.4620115,
    "lng": 120.2413226,
    "geocodeStatus": "success",
    "geocodeError": null
  },
  {
    "name": "正光高工",
    "address": "台中市南區高工路 248號",
    "type": "chengguang",
    "direction": "中部",
    "county": "台中市",
    "district": "南區",
    "lat": 24.1135113,
    "lng": 120.6645398,
    "geocodeStatus": "success",
    "geocodeError": null
  },
  {
    "name": "正光烏日",
    "address": "台中市烏日區光日路 號55號",
    "type": "chengguang",
    "direction": "中部",
    "county": "台中市",
    "district": "烏日區",
    "lat": 24.1028896,
    "lng": 120.6241131,
    "geocodeStatus": "success",
    "geocodeError": null
  },
  {
    "name": "正光員林",
    "address": "彰化縣員林市中山路二段89號",
    "type": "chengguang",
    "direction": "中部",
    "county": "彰化縣",
    "district": "員林市",
    "lat": 23.9624961,
    "lng": 120.5706645,
    "geocodeStatus": "success",
    "geocodeError": null
  },
  {
    "name": "正光鹿港文武",
    "address": "彰化縣鹿港鎮復興南路39號",
    "type": "chengguang",
    "direction": "中部",
    "county": "彰化縣",
    "district": "鹿港鎮",
    "lat": 24.0480862,
    "lng": 120.4395006,
    "geocodeStatus": "success",
    "geocodeError": null
  },
  {
    "name": "正光鹿港",
    "address": "彰化縣鹿港鎮復興路251號",
    "type": "chengguang",
    "direction": "中部",
    "county": "彰化縣",
    "district": "鹿港鎮",
    "lat": 24.055651,
    "lng": 120.437846,
    "geocodeStatus": "success",
    "geocodeError": null
  },
  {
    "name": "正光溪湖",
    "address": "彰化縣溪湖鎮溪湖鎮平和街202號",
    "type": "chengguang",
    "direction": "中部",
    "county": "彰化縣",
    "district": "溪湖鎮",
    "lat": 23.9569426,
    "lng": 120.4796703,
    "geocodeStatus": "success",
    "geocodeError": null
  },
  {
    "name": "正光中正",
    "address": "彰化縣彰化市中正里中正路一段253號",
    "type": "chengguang",
    "direction": "中部",
    "county": "彰化縣",
    "district": "彰化市",
    "lat": 24.083378,
    "lng": 120.546626,
    "geocodeStatus": "success",
    "geocodeError": null
  },
  {
    "name": "正光中山",
    "address": "彰化縣彰化市民族路211號",
    "type": "chengguang",
    "direction": "中部",
    "county": "彰化縣",
    "district": "彰化市",
    "lat": 24.0707193,
    "lng": 120.5387412,
    "geocodeStatus": "success",
    "geocodeError": null
  },
  {
    "name": "正光彰南",
    "address": "彰化縣彰化市彰南路一段21號",
    "type": "chengguang",
    "direction": "中部",
    "county": "彰化縣",
    "district": "彰化市",
    "lat": 24.0884116,
    "lng": 120.5662832,
    "geocodeStatus": "success",
    "geocodeError": null
  },
  {
    "name": "全球佳美",
    "address": "桃園市八德區介壽路一段688號",
    "type": "global",
    "direction": "北部",
    "county": "桃園市",
    "district": "八德區",
    "lat": 24.9660119,
    "lng": 121.3005941,
    "geocodeStatus": "success",
    "geocodeError": null
  },
  {
    "name": "全球環球",
    "address": "桃園市八德區介壽路一段831號",
    "type": "global",
    "direction": "北部",
    "county": "桃園市",
    "district": "八德區",
    "lat": 24.9617315,
    "lng": 121.3000994,
    "geocodeStatus": "success",
    "geocodeError": null
  },
  {
    "name": "全球健民",
    "address": "桃園市八德區介壽路二段282號",
    "type": "global",
    "direction": "北部",
    "county": "桃園市",
    "district": "八德區",
    "lat": 24.9500267,
    "lng": 121.2976937,
    "geocodeStatus": "success",
    "geocodeError": null
  },
  {
    "name": "全球建國",
    "address": "桃園市八德區建國路866號",
    "type": "global",
    "direction": "北部",
    "county": "桃園市",
    "district": "八德區",
    "lat": 24.9525444,
    "lng": 121.2912058,
    "geocodeStatus": "success",
    "geocodeError": null
  },
  {
    "name": "全球菓林",
    "address": "桃園市大園區菓林路248號",
    "type": "global",
    "direction": "北部",
    "county": "桃園市",
    "district": "大園區",
    "lat": 25.0777161,
    "lng": 121.2577997,
    "geocodeStatus": "success",
    "geocodeError": null
  },
  {
    "name": "全球山本",
    "address": "桃園市大溪區仁善街228號",
    "type": "global",
    "direction": "北部",
    "county": "桃園市",
    "district": "大溪區",
    "lat": 24.9103805,
    "lng": 121.2812693,
    "geocodeStatus": "success",
    "geocodeError": null
  },
  {
    "name": "全球永美",
    "address": "桃園市中壢區中山東路二段530號",
    "type": "global",
    "direction": "北部",
    "county": "桃園市",
    "district": "中壢區",
    "lat": 24.9469894,
    "lng": 121.2455458,
    "geocodeStatus": "success",
    "geocodeError": null
  },
  {
    "name": "全球青埔",
    "address": "桃園市中壢區高鐵南路二段227號",
    "type": "global",
    "direction": "北部",
    "county": "桃園市",
    "district": "中壢區",
    "lat": 25.0035159,
    "lng": 121.2057219,
    "geocodeStatus": "success",
    "geocodeError": null
  },
  {
    "name": "全球同慶",
    "address": "桃園市中壢區健行路52號",
    "type": "global",
    "direction": "北部",
    "county": "桃園市",
    "district": "中壢區",
    "lat": 24.9511205,
    "lng": 121.2266681,
    "geocodeStatus": "success",
    "geocodeError": null
  },
  {
    "name": "全球宜美",
    "address": "桃園市中壢區莊敬路716號",
    "type": "global",
    "direction": "北部",
    "county": "桃園市",
    "district": "中壢區",
    "lat": 24.9664195,
    "lng": 121.2568796,
    "geocodeStatus": "success",
    "geocodeError": null
  },
  {
    "name": "全球和平",
    "address": "桃園市平鎮區和平路160路",
    "type": "global",
    "direction": "北部",
    "county": "桃園市",
    "district": "平鎮區",
    "lat": 24.9467556,
    "lng": 121.2198655,
    "geocodeStatus": "success",
    "geocodeError": null
  },
  {
    "name": "全球奇美",
    "address": "桃園市桃園區中正五街185號",
    "type": "global",
    "direction": "北部",
    "county": "桃園市",
    "district": "桃園區",
    "lat": 25.0050998,
    "lng": 121.3013955,
    "geocodeStatus": "success",
    "geocodeError": null
  },
  {
    "name": "全球樹仁",
    "address": "桃園市桃園區樹仁三街21號",
    "type": "global",
    "direction": "北部",
    "county": "桃園市",
    "district": "桃園區",
    "lat": 24.9746975,
    "lng": 121.3230941,
    "geocodeStatus": "success",
    "geocodeError": null
  },
  {
    "name": "全球龍安",
    "address": "桃園市桃園區龍安路109號",
    "type": "global",
    "direction": "北部",
    "county": "桃園市",
    "district": "桃園區",
    "lat": 24.9897095,
    "lng": 121.2798244,
    "geocodeStatus": "success",
    "geocodeError": null
  },
  {
    "name": "全球埔心",
    "address": "桃園市楊梅區四維里永美路395號",
    "type": "global",
    "direction": "北部",
    "county": "桃園市",
    "district": "楊梅區",
    "lat": 24.9148938,
    "lng": 121.1796834,
    "geocodeStatus": "success",
    "geocodeError": null
  },
  {
    "name": "全球龍正",
    "address": "桃園市龍潭區中正路231號",
    "type": "global",
    "direction": "北部",
    "county": "桃園市",
    "district": "龍潭區",
    "lat": 24.8639097,
    "lng": 121.2173162,
    "geocodeStatus": "success",
    "geocodeError": null
  },
  {
    "name": "全球北龍",
    "address": "桃園市龍潭區北龍路185號",
    "type": "global",
    "direction": "北部",
    "county": "桃園市",
    "district": "龍潭區",
    "lat": 24.8670476,
    "lng": 121.2153818,
    "geocodeStatus": "success",
    "geocodeError": null
  },
  {
    "name": "全球萬壽",
    "address": "桃園市龜山區萬壽路二段927號",
    "type": "global",
    "direction": "北部",
    "county": "桃園市",
    "district": "龜山區",
    "lat": 24.9954125,
    "lng": 121.3388965,
    "geocodeStatus": "success",
    "geocodeError": null
  },
  {
    "name": "全球欣美",
    "address": "新北市三峽區大同路52號",
    "type": "global",
    "direction": "北部",
    "county": "新北市",
    "district": "三峽區",
    "lat": 24.928613,
    "lng": 121.376945,
    "geocodeStatus": "success",
    "geocodeError": null
  },
  {
    "name": "全球忠孝",
    "address": "新北市林口區忠孝路497號",
    "type": "global",
    "direction": "北部",
    "county": "新北市",
    "district": "林口區",
    "lat": 25.0702182,
    "lng": 121.3710028,
    "geocodeStatus": "success",
    "geocodeError": null
  },
  {
    "name": "全球明志",
    "address": "新北市泰山區明志路三段72號",
    "type": "global",
    "direction": "北部",
    "county": "新北市",
    "district": "泰山區",
    "lat": 25.0419108,
    "lng": 121.4248779,
    "geocodeStatus": "success",
    "geocodeError": null
  },
  {
    "name": "名媛南投",
    "address": "南投縣南投市南崗路一段329號",
    "type": "mingyuan",
    "direction": "中部",
    "county": "南投縣",
    "district": "南投市",
    "lat": 23.9048523,
    "lng": 120.6805023,
    "geocodeStatus": "success",
    "geocodeError": null
  },
  {
    "name": "名媛屏東",
    "address": "屏東縣屏東市自由路603號",
    "type": "mingyuan",
    "direction": "南部",
    "county": "屏東縣",
    "district": "屏東市",
    "lat": 22.6831089,
    "lng": 120.4834393,
    "geocodeStatus": "success",
    "geocodeError": null
  },
  {
    "name": "名媛曾子",
    "address": "高雄市左營區曾子路72號",
    "type": "mingyuan",
    "direction": "南部",
    "county": "高雄市",
    "district": "左營區",
    "lat": 22.6768165,
    "lng": 120.3113899,
    "geocodeStatus": "success",
    "geocodeError": null
  },
  {
    "name": "名媛三多",
    "address": "高雄市前鎮區三多二路467號",
    "type": "mingyuan",
    "direction": "南部",
    "county": "高雄市",
    "district": "前鎮區",
    "lat": 22.6173519,
    "lng": 120.3152188,
    "geocodeStatus": "success",
    "geocodeError": null
  },
  {
    "name": "名媛藍田",
    "address": "高雄市楠梓區藍田路23號",
    "type": "mingyuan",
    "direction": "南部",
    "county": "高雄市",
    "district": "楠梓區",
    "lat": 22.7264448,
    "lng": 120.2947389,
    "geocodeStatus": "success",
    "geocodeError": null
  },
  {
    "name": "名媛鳳山",
    "address": "高雄市鳳山區中山西路133號",
    "type": "mingyuan",
    "direction": "南部",
    "county": "高雄市",
    "district": "鳳山區",
    "lat": 22.6271536,
    "lng": 120.3515728,
    "geocodeStatus": "success",
    "geocodeError": null
  },
  {
    "name": "名媛友愛",
    "address": "嘉義市西區竹圍里友愛路410號",
    "type": "mingyuan",
    "direction": "南部",
    "county": "嘉義市",
    "district": "西區",
    "lat": 23.4873947,
    "lng": 120.4339142,
    "geocodeStatus": "success",
    "geocodeError": null
  },
  {
    "name": "宜兒樂白河",
    "address": "台南市白河區中正路74-2號",
    "type": "yierle",
    "direction": "南部",
    "county": "台南市",
    "district": "白河區",
    "lat": 23.349908,
    "lng": 120.4137303,
    "geocodeStatus": "success",
    "geocodeError": null
  },
  {
    "name": "宜兒樂崇道",
    "address": "台南市東區崇道路51號",
    "type": "yierle",
    "direction": "南部",
    "county": "台南市",
    "district": "東區",
    "lat": 22.972231,
    "lng": 120.2266653,
    "geocodeStatus": "success",
    "geocodeError": null
  },
  {
    "name": "宜兒樂麻豆",
    "address": "台南市麻豆區中正路105號",
    "type": "yierle",
    "direction": "南部",
    "county": "台南市",
    "district": "麻豆區",
    "lat": 23.1869178,
    "lng": 120.2502288,
    "geocodeStatus": "success",
    "geocodeError": null
  },
  {
    "name": "宜兒樂新營",
    "address": "台南市新營區民權路96-17號",
    "type": "yierle",
    "direction": "南部",
    "county": "台南市",
    "district": "新營區",
    "lat": 23.3107034,
    "lng": 120.3121982,
    "geocodeStatus": "success",
    "geocodeError": null
  },
  {
    "name": "宜兒樂鹽水",
    "address": "台南市鹽水區三福路84號",
    "type": "yierle",
    "direction": "南部",
    "county": "台南市",
    "district": "鹽水區",
    "lat": 23.3211688,
    "lng": 120.2654736,
    "geocodeStatus": "success",
    "geocodeError": null
  },
  {
    "name": "宜兒樂新建國",
    "address": "高雄市三民區建國一路295號",
    "type": "yierle",
    "direction": "南部",
    "county": "高雄市",
    "district": "三民區",
    "lat": 22.633757,
    "lng": 120.3190582,
    "geocodeStatus": "success",
    "geocodeError": null
  },
  {
    "name": "宜兒樂鼎山",
    "address": "高雄市三民區鼎山街257號",
    "type": "yierle",
    "direction": "南部",
    "county": "高雄市",
    "district": "三民區",
    "lat": 22.6586808,
    "lng": 120.3221053,
    "geocodeStatus": "success",
    "geocodeError": null
  },
  {
    "name": "宜兒樂澄清",
    "address": "高雄市三民區澄清路568號",
    "type": "yierle",
    "direction": "南部",
    "county": "高雄市",
    "district": "三民區",
    "lat": 22.6429194,
    "lng": 120.3464578,
    "geocodeStatus": "success",
    "geocodeError": null
  },
  {
    "name": "宜兒樂南岡山",
    "address": "高雄市岡山區中山南路366號",
    "type": "yierle",
    "direction": "南部",
    "county": "高雄市",
    "district": "岡山區",
    "lat": 22.7880605,
    "lng": 120.2998624,
    "geocodeStatus": "success",
    "geocodeError": null
  },
  {
    "name": "宜兒樂岡山",
    "address": "高雄市岡山區前鋒路59號",
    "type": "yierle",
    "direction": "南部",
    "county": "高雄市",
    "district": "岡山區",
    "lat": 22.7955702,
    "lng": 120.2872754,
    "geocodeStatus": "success",
    "geocodeError": null
  },
  {
    "name": "宜兒樂阿蓮",
    "address": "高雄市阿蓮區中正路409號",
    "type": "yierle",
    "direction": "南部",
    "county": "高雄市",
    "district": "阿蓮區",
    "lat": 22.8805081,
    "lng": 120.332094,
    "geocodeStatus": "success",
    "geocodeError": null
  },
  {
    "name": "宜兒樂自強",
    "address": "高雄市前金區自強二路79號",
    "type": "yierle",
    "direction": "南部",
    "county": "高雄市",
    "district": "前金區",
    "lat": 22.6245284,
    "lng": 120.2954944,
    "geocodeStatus": "success",
    "geocodeError": null
  },
  {
    "name": "宜兒樂梓官",
    "address": "高雄市梓官區梓官路148-1號",
    "type": "yierle",
    "direction": "南部",
    "county": "高雄市",
    "district": "梓官區",
    "lat": 22.7585138,
    "lng": 120.2673804,
    "geocodeStatus": "success",
    "geocodeError": null
  },
  {
    "name": "宜兒樂德民",
    "address": "高雄市楠梓區德民路1003-5號",
    "type": "yierle",
    "direction": "南部",
    "county": "高雄市",
    "district": "楠梓區",
    "lat": 22.7193218,
    "lng": 120.2867419,
    "geocodeStatus": "success",
    "geocodeError": null
  },
  {
    "name": "宜兒樂興楠",
    "address": "高雄市楠梓區興楠路386號",
    "type": "yierle",
    "direction": "南部",
    "county": "高雄市",
    "district": "楠梓區",
    "lat": 22.7287885,
    "lng": 120.3307526,
    "geocodeStatus": "success",
    "geocodeError": null
  },
  {
    "name": "宜兒樂路竹",
    "address": "高雄市路竹區國昌路85號",
    "type": "yierle",
    "direction": "南部",
    "county": "高雄市",
    "district": "路竹區",
    "lat": 22.8542549,
    "lng": 120.258259,
    "geocodeStatus": "success",
    "geocodeError": null
  },
  {
    "name": "宜兒樂美術館",
    "address": "高雄市鼓山區美術南三路136號",
    "type": "yierle",
    "direction": "南部",
    "county": "高雄市",
    "district": "鼓山區",
    "lat": 22.6534975,
    "lng": 120.287284,
    "geocodeStatus": "success",
    "geocodeError": null
  },
  {
    "name": "宜兒樂橋頭",
    "address": "高雄市橋頭區樹德路42號",
    "type": "yierle",
    "direction": "南部",
    "county": "高雄市",
    "district": "橋頭區",
    "lat": 22.759742,
    "lng": 120.3048509,
    "geocodeStatus": "success",
    "geocodeError": null
  },
  {
    "name": "宜兒樂朴子",
    "address": "嘉義縣朴子市南通路三段783號",
    "type": "yierle",
    "direction": "南部",
    "county": "嘉義縣",
    "district": "朴子市",
    "lat": 23.4641298,
    "lng": 120.2427864,
    "geocodeStatus": "success",
    "geocodeError": null
  },
  {
    "name": "易美易美",
    "address": "彰化縣彰化市中正路二段617號",
    "type": "imei",
    "direction": "中部",
    "county": "彰化縣",
    "district": "彰化市",
    "lat": 24.0684147,
    "lng": 120.5354868,
    "geocodeStatus": "success",
    "geocodeError": null
  },
  {
    "name": "喜寶喜寶婦嬰坊",
    "address": "嘉義縣民雄鄉西安村安和路80號",
    "type": "hipp",
    "direction": "南部",
    "county": "嘉義縣",
    "district": "民雄鄉",
    "lat": 23.5554055,
    "lng": 120.4261172,
    "geocodeStatus": "success",
    "geocodeError": null
  },
  {
    "name": "媽媽好台北莊敬",
    "address": "台北市信義區莊敬路399號",
    "type": "mamahow",
    "direction": "北部",
    "county": "台北市",
    "district": "信義區",
    "lat": 25.0275465,
    "lng": 121.5658945,
    "geocodeStatus": "success",
    "geocodeError": null
  },
  {
    "name": "媽媽好土城裕民",
    "address": "新北市土城區裕民路79-1號",
    "type": "mamahow",
    "direction": "北部",
    "county": "新北市",
    "district": "土城區",
    "lat": 24.9875843,
    "lng": 121.4499087,
    "geocodeStatus": "success",
    "geocodeError": null
  },
  {
    "name": "媽媽好中和旗艦",
    "address": "新北市中和區中山路二段419號",
    "type": "mamahow",
    "direction": "北部",
    "county": "新北市",
    "district": "中和區",
    "lat": 25.004719,
    "lng": 121.48569,
    "geocodeStatus": "success",
    "geocodeError": null
  },
  {
    "name": "媽媽好中和裕昌",
    "address": "新北市中和區自治街36號",
    "type": "mamahow",
    "direction": "北部",
    "county": "新北市",
    "district": "中和區",
    "lat": 25.0031862,
    "lng": 121.4750676,
    "geocodeStatus": "success",
    "geocodeError": null
  },
  {
    "name": "媽媽好汐科門市",
    "address": "新北市汐止區南興路30號",
    "type": "mamahow",
    "direction": "北部",
    "county": "新北市",
    "district": "汐止區",
    "lat": 25.0611795,
    "lng": 121.6513956,
    "geocodeStatus": "success",
    "geocodeError": null
  },
  {
    "name": "媽媽好板橋新埔",
    "address": "新北市板橋區文化路二段20號",
    "type": "mamahow",
    "direction": "北部",
    "county": "新北市",
    "district": "板橋區",
    "lat": 25.0243304,
    "lng": 121.4690351,
    "geocodeStatus": "success",
    "geocodeError": null
  },
  {
    "name": "媽媽好新店北新",
    "address": "新北市新店區北新路一段339號",
    "type": "mamahow",
    "direction": "北部",
    "county": "新北市",
    "district": "新店區",
    "lat": 24.9688994,
    "lng": 121.5416612,
    "geocodeStatus": "success",
    "geocodeError": null
  },
  {
    "name": "媽媽好新店寶僑",
    "address": "新北市新店區寶橋路2號",
    "type": "mamahow",
    "direction": "北部",
    "county": "新北市",
    "district": "新店區",
    "lat": 24.9733129,
    "lng": 121.543192,
    "geocodeStatus": "success",
    "geocodeError": null
  },
  {
    "name": "媽媽好新莊中平",
    "address": "新北市新莊區中平路126號",
    "type": "mamahow",
    "direction": "北部",
    "county": "新北市",
    "district": "新莊區",
    "lat": 25.0466269,
    "lng": 121.4449077,
    "geocodeStatus": "success",
    "geocodeError": null
  },
  {
    "name": "媽媽好新竹竹北旗艦",
    "address": "新竹縣竹北市自強南路372號",
    "type": "mamahow",
    "direction": "北部",
    "county": "新竹縣",
    "district": "竹北市",
    "lat": 24.8122571,
    "lng": 121.0221542,
    "geocodeStatus": "success",
    "geocodeError": null
  },
  {
    "name": "頑皮寶貝博愛",
    "address": "高雄市三民區博愛一路227號",
    "type": "naughty",
    "direction": "南部",
    "county": "高雄市",
    "district": "三民區",
    "lat": 22.6479144,
    "lng": 120.3029638,
    "geocodeStatus": "success",
    "geocodeError": null
  },
  {
    "name": "頑皮寶貝復興",
    "address": "高雄市三民區復興一路9-2號",
    "type": "naughty",
    "direction": "南部",
    "county": "高雄市",
    "district": "三民區",
    "lat": 22.6282145,
    "lng": 120.3077714,
    "geocodeStatus": "success",
    "geocodeError": null
  },
  {
    "name": "頑皮寶貝明誠",
    "address": "高雄市左營區明誠二路517號",
    "type": "naughty",
    "direction": "南部",
    "county": "高雄市",
    "district": "左營區",
    "lat": 22.6610101,
    "lng": 120.3043802,
    "geocodeStatus": "success",
    "geocodeError": null
  },
  {
    "name": "頑皮寶貝鳳山",
    "address": "高雄市鳳山區文濱路83號",
    "type": "naughty",
    "direction": "南部",
    "county": "高雄市",
    "district": "鳳山區",
    "lat": 22.6420986,
    "lng": 120.3487987,
    "geocodeStatus": "success",
    "geocodeError": null
  },
  {
    "name": "頑皮寶貝保南",
    "address": "高雄市鳳山區保南二路211號",
    "type": "naughty",
    "direction": "南部",
    "county": "高雄市",
    "district": "鳳山區",
    "lat": 22.5961396,
    "lng": 120.3498001,
    "geocodeStatus": "success",
    "geocodeError": null
  },
  {
    "name": "樂兒屋西門",
    "address": "台南市北區西門路四段226號",
    "type": "leerwu",
    "direction": "南部",
    "county": "台南市",
    "district": "北區",
    "lat": 23.0109646,
    "lng": 120.2086747,
    "geocodeStatus": "success",
    "geocodeError": null
  },
  {
    "name": "樂兒屋大灣",
    "address": "台南市永康區大灣路721-1號",
    "type": "leerwu",
    "direction": "南部",
    "county": "台南市",
    "district": "永康區",
    "lat": 22.999727,
    "lng": 120.2577182,
    "geocodeStatus": "success",
    "geocodeError": null
  },
  {
    "name": "樂兒屋開元",
    "address": "台南市永康區中山南路97號",
    "type": "leerwu",
    "direction": "南部",
    "county": "台南市",
    "district": "永康區",
    "lat": 23.0128506,
    "lng": 120.2282828,
    "geocodeStatus": "success",
    "geocodeError": null
  },
  {
    "name": "樂兒屋文平",
    "address": "台南市安平區文平路275號",
    "type": "leerwu",
    "direction": "南部",
    "county": "台南市",
    "district": "安平區",
    "lat": 22.9888698,
    "lng": 120.1780258,
    "geocodeStatus": "success",
    "geocodeError": null
  },
  {
    "name": "樂兒屋安和",
    "address": "台南市安南區安和路四段561號",
    "type": "leerwu",
    "direction": "南部",
    "county": "台南市",
    "district": "安南區",
    "lat": 23.0621585,
    "lng": 120.218514,
    "geocodeStatus": "success",
    "geocodeError": null
  },
  {
    "name": "樂兒屋安南",
    "address": "台南市安南區安海佃路一段245號",
    "type": "leerwu",
    "direction": "南部",
    "county": "台南市",
    "district": "安南區",
    "lat": 23.0258215,
    "lng": 120.1909697,
    "geocodeStatus": "success",
    "geocodeError": null
  },
  {
    "name": "樂兒屋中華",
    "address": "台南市東區中華東路三段116號",
    "type": "leerwu",
    "direction": "南部",
    "county": "台南市",
    "district": "東區",
    "lat": 22.9789111,
    "lng": 120.2271939,
    "geocodeStatus": "success",
    "geocodeError": null
  },
  {
    "name": "樂兒屋金華",
    "address": "台南市南區金華路二段301號",
    "type": "leerwu",
    "direction": "南部",
    "county": "台南市",
    "district": "南區",
    "lat": 22.9845685,
    "lng": 120.1915451,
    "geocodeStatus": "success",
    "geocodeError": null
  },
  {
    "name": "樂兒屋善化",
    "address": "台南市善化區中山路131號",
    "type": "leerwu",
    "direction": "南部",
    "county": "台南市",
    "district": "善化區",
    "lat": 23.1328079,
    "lng": 120.3019487,
    "geocodeStatus": "success",
    "geocodeError": null
  },
  {
    "name": "樂兒屋新化",
    "address": "台南市新化區中正路705號",
    "type": "leerwu",
    "direction": "南部",
    "county": "台南市",
    "district": "新化區",
    "lat": 23.0425622,
    "lng": 120.3049396,
    "geocodeStatus": "success",
    "geocodeError": null
  },
  {
    "name": "樂芙中正",
    "address": "花蓮縣花蓮市中正路325號",
    "type": "love",
    "direction": "東部",
    "county": "花蓮縣",
    "district": "花蓮市",
    "lat": 23.9736224,
    "lng": 121.6016657,
    "geocodeStatus": "success",
    "geocodeError": null
  },
  {
    "name": "樂芙中華",
    "address": "花蓮縣花蓮市中華路388號",
    "type": "love",
    "direction": "東部",
    "county": "花蓮縣",
    "district": "花蓮市",
    "lat": 23.9748393,
    "lng": 121.595352,
    "geocodeStatus": "success",
    "geocodeError": null
  },
  {
    "name": "樂芙自強",
    "address": "花蓮縣花蓮市自強路589號",
    "type": "love",
    "direction": "東部",
    "county": "花蓮縣",
    "district": "花蓮市",
    "lat": 23.9888954,
    "lng": 121.5934975,
    "geocodeStatus": "success",
    "geocodeError": null
  },
  {
    "name": "寶齡大里",
    "address": "台中市大里區大明路303號",
    "type": "poly",
    "direction": "中部",
    "county": "台中市",
    "district": "大里區",
    "lat": 24.1149594,
    "lng": 120.6807425,
    "geocodeStatus": "success",
    "geocodeError": null
  },
  {
    "name": "寶齡雅潭",
    "address": "台中市大雅區雅潭路四段647號",
    "type": "poly",
    "direction": "中部",
    "county": "台中市",
    "district": "大雅區",
    "lat": 24.2211423,
    "lng": 120.6527547,
    "geocodeStatus": "success",
    "geocodeError": null
  },
  {
    "name": "寶齡育賢",
    "address": "台中市太平區太平區育賢路372號",
    "type": "poly",
    "direction": "中部",
    "county": "台中市",
    "district": "太平區",
    "lat": 24.1588243,
    "lng": 120.7144151,
    "geocodeStatus": "success",
    "geocodeError": null
  },
  {
    "name": "寶齡昌平",
    "address": "台中市北屯區平昌里昌平路一段64號",
    "type": "poly",
    "direction": "中部",
    "county": "台中市",
    "district": "北屯區",
    "lat": 24.168089,
    "lng": 120.6932271,
    "geocodeStatus": "success",
    "geocodeError": null
  },
  {
    "name": "寶齡東山",
    "address": "台中市北屯區東山路一段236-3號",
    "type": "poly",
    "direction": "中部",
    "county": "台中市",
    "district": "北屯區",
    "lat": 24.1753035,
    "lng": 120.7171856,
    "geocodeStatus": "success",
    "geocodeError": null
  },
  {
    "name": "寶齡敦富",
    "address": "台中市北屯區南興北一路130號",
    "type": "poly",
    "direction": "中部",
    "county": "台中市",
    "district": "北屯區",
    "lat": 24.186719,
    "lng": 120.7065567,
    "geocodeStatus": "success",
    "geocodeError": null
  },
  {
    "name": "寶齡大雅",
    "address": "台中市北區中清路一段480號",
    "type": "poly",
    "direction": "中部",
    "county": "台中市",
    "district": "北區",
    "lat": 24.1641785,
    "lng": 120.6743979,
    "geocodeStatus": "success",
    "geocodeError": null
  },
  {
    "name": "寶齡文心",
    "address": "台中市西屯區文心路三段121號",
    "type": "poly",
    "direction": "中部",
    "county": "台中市",
    "district": "西屯區",
    "lat": 24.1691049,
    "lng": 120.6550978,
    "geocodeStatus": "success",
    "geocodeError": null
  },
  {
    "name": "寶齡福科",
    "address": "台中市西屯區福科路471號",
    "type": "poly",
    "direction": "中部",
    "county": "台中市",
    "district": "西屯區",
    "lat": 24.184148,
    "lng": 120.6198822,
    "geocodeStatus": "success",
    "geocodeError": null
  },
  {
    "name": "寶齡美村",
    "address": "台中市西區美村路一段260號",
    "type": "poly",
    "direction": "中部",
    "county": "台中市",
    "district": "西區",
    "lat": 24.1476485,
    "lng": 120.6615585,
    "geocodeStatus": "success",
    "geocodeError": null
  },
  {
    "name": "寶齡黎明",
    "address": "台中市南屯區黎明路一段1016號",
    "type": "poly",
    "direction": "中部",
    "county": "台中市",
    "district": "南屯區",
    "lat": 24.1384195,
    "lng": 120.6378383,
    "geocodeStatus": "success",
    "geocodeError": null
  }
]